[{"name":"ï»¿Abbey Wood","crs":"ABW","lat":"51.490976","lon":"0.120832"},{"name":"Aber","crs":"ABE","lat":"51.574917","lon":"-3.229922"},{"name":"Abercynon","crs":"ACY","lat":"51.643039","lon":"-3.329549"},{"name":"Aberdare","crs":"ABA","lat":"51.714529","lon":"-3.441966"},{"name":"Aberdeen","crs":"ABD","lat":"49.183933","lon":"-123.136459"},{"name":"Aberdour","crs":"AUR","lat":"56.054721","lon":"-3.300982"},{"name":"Aberdovey","crs":"AVY","lat":"52.544376","lon":"-4.055833"},{"name":"Abererch","crs":"ABH","lat":"52.898407","lon":"-4.374912"},{"name":"Abergavenny","crs":"AGV","lat":"51.81669","lon":"-3.00965"},{"name":"Abergele & Pensarn","crs":"AGL","lat":"53.284355","lon":"-3.581405"},{"name":"Aberystwyth","crs":"AYW","lat":"52.414074","lon":"-4.08176"},{"name":"Accrington","crs":"ACR","lat":"53.75298","lon":"-2.36955"},{"name":"Achanalt","crs":"AAT","lat":"57.609814","lon":"-4.9142"},{"name":"Achnasheen","crs":"ACN","lat":"57.579098","lon":"-5.072364"},{"name":"Achnashellach","crs":"ACH","lat":"57.482052","lon":"-5.33305"},{"name":"Acklington","crs":"ACK","lat":"55.307119","lon":"-1.651661"},{"name":"Acle","crs":"ACL","lat":"52.634767","lon":"1.543954"},{"name":"Acocks Green","crs":"ACG","lat":"52.449702","lon":"-1.819693"},{"name":"Acton Bridge (Cheshire)","crs":"ACB","lat":"53.266386","lon":"-2.60282"},{"name":"Acton Central","crs":"ACC","lat":"51.508726","lon":"-0.263045"},{"name":"Acton Main Line","crs":"AML","lat":"51.51718","lon":"-0.26673"},{"name":"Adderley Park","crs":"ADD","lat":"52.48326","lon":"-1.856014"},{"name":"Addiewell","crs":"ADW","lat":"55.843562","lon":"-3.606269"},{"name":"Addlestone","crs":"ASN","lat":"51.373104","lon":"-0.484375"},{"name":"Adisham","crs":"ADM","lat":"51.241203","lon":"1.199118"},{"name":"Adlington (Cheshire)","crs":"ADC","lat":"53.319642","lon":"-2.133508"},{"name":"Adlington (Lancs)","crs":"ADL","lat":"53.613184","lon":"-2.603117"},{"name":"Adwick","crs":"AWK","lat":"53.572295","lon":"-1.18006"},{"name":"Aigburth","crs":"AIG","lat":"53.364758","lon":"-2.926824"},{"name":"Ainsdale","crs":"ANS","lat":"53.602141","lon":"-3.042555"},{"name":"Aintree","crs":"AIN","lat":"53.47392","lon":"-2.95628"},{"name":"Airbles","crs":"AIR","lat":"55.782189","lon":"-3.994741"},{"name":"Airdrie","crs":"ADR","lat":"55.864097","lon":"-3.981784"},{"name":"Albany Park","crs":"AYP","lat":"51.435628","lon":"0.125776"},{"name":"Albrighton","crs":"ALB","lat":"52.638148","lon":"-2.269293"},{"name":"Alderley Edge","crs":"ALD","lat":"53.303795","lon":"-2.236797"},{"name":"Aldermaston","crs":"AMT","lat":"51.402234","lon":"-1.136799"},{"name":"Aldershot","crs":"AHT","lat":"43.313321","lon":"-79.855626"},{"name":"Aldrington","crs":"AGT","lat":"50.8364","lon":"-0.181501"},{"name":"Alexandra Palace","crs":"AAP","lat":"51.59792","lon":"-0.12021"},{"name":"Alexandra Parade","crs":"AXP","lat":"55.863294","lon":"-4.210717"},{"name":"Alexandria","crs":"ALX","lat":"38.810581","lon":"-77.135206"},{"name":"Alfreton","crs":"ALF","lat":"53.10069","lon":"-1.369851"},{"name":"Allens West","crs":"ALW","lat":"54.524623","lon":"-1.36162"},{"name":"Alloa","crs":"ALO","lat":"56.117826","lon":"-3.788669"},{"name":"Alness","crs":"ASS","lat":"57.694452","lon":"-4.250081"},{"name":"Alnmouth","crs":"ALM","lat":"55.392836","lon":"-1.636614"},{"name":"Alresford (Essex)","crs":"ALR","lat":"51.853942","lon":"0.997247"},{"name":"Alsager","crs":"ASG","lat":"53.09297","lon":"-2.298939"},{"name":"Althorne (Essex)","crs":"ALN","lat":"51.647873","lon":"0.752513"},{"name":"Althorpe","crs":"ALP","lat":"53.585428","lon":"-0.73328"},{"name":"Altnabreac","crs":"ABC","lat":"58.388329","lon":"-3.70527"},{"name":"Alton","crs":"AON","lat":"51.151924","lon":"-0.967236"},{"name":"Altrincham","crs":"ALT","lat":"53.387429","lon":"-2.347619"},{"name":"Alvechurch","crs":"ALV","lat":"52.346972","lon":"-1.967887"},{"name":"Ambergate","crs":"AMB","lat":"35.741583","lon":"-78.846505"},{"name":"Amberley","crs":"AMY","lat":"50.896636","lon":"-0.541856"},{"name":"Amersham","crs":"AMR","lat":"51.674176","lon":"-0.607387"},{"name":"Ammanford","crs":"AMF","lat":"51.795681","lon":"-3.99675"},{"name":"Ancaster","crs":"ANC","lat":"52.98776","lon":"-0.53518"},{"name":"Anderston","crs":"AND","lat":"55.859844","lon":"-4.270947"},{"name":"Andover","crs":"ADV","lat":"42.65829","lon":"-71.144662"},{"name":"Anerley","crs":"ANZ","lat":"51.412156","lon":"-0.065718"},{"name":"Angmering","crs":"ANG","lat":"50.816598","lon":"-0.489235"},{"name":"Annan","crs":"ANN","lat":"54.983502","lon":"-3.262327"},{"name":"Anniesland","crs":"ANL","lat":"55.88962","lon":"-4.321623"},{"name":"Ansdell & Fairhaven","crs":"AFV","lat":"53.747366","lon":"-2.995814"},{"name":"Apperley Bridge","crs":"APY","lat":"53.841876","lon":"-1.706448"},{"name":"Appleby","crs":"APP","lat":"43.379022","lon":"-79.760992"},{"name":"Appledore (Kent)","crs":"APD","lat":"51.033204","lon":"0.816306"},{"name":"Appleford","crs":"APF","lat":"51.639571","lon":"-1.242371"},{"name":"Appley Bridge","crs":"APB","lat":"53.57873","lon":"-2.719143"},{"name":"Apsley","crs":"APS","lat":"51.732525","lon":"-0.462913"},{"name":"Arbroath","crs":"ARB","lat":"56.55956","lon":"-2.58894"},{"name":"Ardgay","crs":"ARD","lat":"57.881287","lon":"-4.362154"},{"name":"Ardlui","crs":"AUI","lat":"56.302089","lon":"-4.721741"},{"name":"Ardrossan Harbour","crs":"ADS","lat":"55.63987","lon":"-4.821088"},{"name":"Ardrossan South Beach","crs":"ASB","lat":"55.64132","lon":"-4.801221"},{"name":"Ardrossan Town","crs":"ADN","lat":"55.639932","lon":"-4.812399"},{"name":"Ardwick","crs":"ADK","lat":"53.471183","lon":"-2.21314"},{"name":"Argyle Street","crs":"AGS","lat":"55.8573","lon":"-4.250679"},{"name":"Arisaig","crs":"ARG","lat":"56.912525","lon":"-5.839058"},{"name":"Arlesey","crs":"ARL","lat":"52.025973","lon":"-0.266173"},{"name":"Armadale (West Lothian)","crs":"ARM","lat":"55.886642","lon":"-3.692436"},{"name":"Armathwaite","crs":"AWT","lat":"54.809596","lon":"-2.772143"},{"name":"Arnside","crs":"ARN","lat":"54.202874","lon":"-2.828242"},{"name":"Arram","crs":"ARR","lat":"53.884167","lon":"-0.426269"},{"name":"Arrochar & Tarbet","crs":"ART","lat":"56.200972","lon":"-4.745479"},{"name":"Arundel","crs":"ARU","lat":"38.988952","lon":"-76.670102"},{"name":"Ascot (Berks)","crs":"ACT","lat":"51.406326","lon":"-0.675858"},{"name":"Ascott-under-Wychwood","crs":"AUW","lat":"51.867346","lon":"-1.564159"},{"name":"Ash","crs":"ASH","lat":"51.249007","lon":"-0.712982"},{"name":"Ash Vale","crs":"AHV","lat":"51.272212","lon":"-0.721654"},{"name":"Ashburys","crs":"ABY","lat":"53.471775","lon":"-2.195092"},{"name":"Ashchurch for Tewkesbury","crs":"ASC","lat":"51.999032","lon":"-2.108842"},{"name":"Ashfield","crs":"ASF","lat":"42.551604","lon":"-72.803149"},{"name":"Ashford (Surrey)","crs":"AFS","lat":"51.436449","lon":"-0.468085"},{"name":"Ashford International","crs":"AFK","lat":"51.143354","lon":"0.874853"},{"name":"Ashford International (Eurostar)","crs":"ASI","lat":"51.14374","lon":"0.87636"},{"name":"Ashley","crs":"ASY","lat":"32.486335","lon":"-84.979317"},{"name":"Ashtead","crs":"AHD","lat":"51.317924","lon":"-0.307019"},{"name":"Ashton-under-Lyne","crs":"AHN","lat":"53.491262","lon":"-2.094186"},{"name":"Ashurst (Kent)","crs":"AHS","lat":"51.128647","lon":"0.152679"},{"name":"Ashurst New Forest","crs":"ANF","lat":"50.889794","lon":"-1.526666"},{"name":"Ashwell & Morden","crs":"AWM","lat":"30.336665","lon":"-97.683141"},{"name":"Askam","crs":"ASK","lat":"54.189127","lon":"-3.204787"},{"name":"Aslockton","crs":"ALK","lat":"52.951602","lon":"-0.898113"},{"name":"Aspatria","crs":"ASP","lat":"54.758967","lon":"-3.331971"},{"name":"Aspley Guise","crs":"APG","lat":"52.021325","lon":"-0.632227"},{"name":"Aston","crs":"AST","lat":"52.504215","lon":"-1.871222"},{"name":"Atherstone","crs":"ATH","lat":"52.578475","lon":"-1.55251"},{"name":"Atherton","crs":"ATN","lat":"37.464516","lon":"-122.19798"},{"name":"Attadale","crs":"ATT","lat":"57.394504","lon":"-5.455332"},{"name":"Attenborough","crs":"ATB","lat":"52.906269","lon":"-1.23122"},{"name":"Attleborough","crs":"ATL","lat":"52.514548","lon":"1.022184"},{"name":"Auchinleck","crs":"AUK","lat":"55.470012","lon":"-4.296633"},{"name":"Audley End","crs":"AUD","lat":"52.004448","lon":"0.207303"},{"name":"Aughton Park","crs":"AUG","lat":"53.554261","lon":"-2.895087"},{"name":"Aviemore","crs":"AVM","lat":"57.188517","lon":"-3.829301"},{"name":"Avoncliff","crs":"AVF","lat":"51.339465","lon":"-2.28189"},{"name":"Avonmouth","crs":"AVN","lat":"51.499902","lon":"-2.698935"},{"name":"Axminster","crs":"AXM","lat":"50.779228","lon":"-3.004611"},{"name":"Aylesbury","crs":"AYS","lat":"51.813881","lon":"-0.81496"},{"name":"Aylesbury Vale Parkway","crs":"AVP","lat":"51.831207","lon":"-0.860093"},{"name":"Aylesford","crs":"AYL","lat":"51.30143","lon":"0.465882"},{"name":"Aylesham","crs":"AYH","lat":"51.227398","lon":"1.209519"},{"name":"Ayr","crs":"AYR","lat":"55.458007","lon":"-4.625639"},{"name":"Bache","crs":"BAC","lat":"53.208858","lon":"-2.891603"},{"name":"Baglan","crs":"BAJ","lat":"51.614563","lon":"-3.809713"},{"name":"Bagshot","crs":"BAG","lat":"51.364383","lon":"-0.688635"},{"name":"Baildon","crs":"BLD","lat":"53.850326","lon":"-1.753745"},{"name":"Baillieston","crs":"BIO","lat":"55.844423","lon":"-4.113806"},{"name":"Balcombe","crs":"BAB","lat":"51.05556","lon":"-0.136921"},{"name":"Baldock","crs":"BDK","lat":"51.992888","lon":"-0.187491"},{"name":"Balham","crs":"BAL","lat":"51.44322","lon":"-0.1524"},{"name":"Balloch","crs":"BHC","lat":"56.002389","lon":"-4.583406"},{"name":"Balmossie","crs":"BSI","lat":"56.474754","lon":"-2.838102"},{"name":"Bamber Bridge","crs":"BMB","lat":"53.726798","lon":"-2.660768"},{"name":"Bamford","crs":"BAM","lat":"53.338944","lon":"-1.689088"},{"name":"Banavie","crs":"BNV","lat":"56.843943","lon":"-5.096099"},{"name":"Banbury","crs":"BAN","lat":"52.060364","lon":"-1.327969"},{"name":"Bangor (Gwynedd)","crs":"BNG","lat":"53.223038","lon":"-4.135652"},{"name":"Bank Hall","crs":"BAH","lat":"53.437454","lon":"-2.987466"},{"name":"Banstead","crs":"BAD","lat":"51.327862","lon":"-0.210113"},{"name":"Barassie","crs":"BSS","lat":"55.560975","lon":"-4.651334"},{"name":"Barbican","crs":"ZBB","lat":"51.520182","lon":"-0.097605"},{"name":"Bardon Mill","crs":"BLL","lat":"54.974623","lon":"-2.344995"},{"name":"Bare Lane","crs":"BAR","lat":"54.074533","lon":"-2.835067"},{"name":"Bargeddie","crs":"BGI","lat":"55.851238","lon":"-4.07369"},{"name":"Bargoed","crs":"BGD","lat":"51.692753","lon":"-3.22972"},{"name":"Barking","crs":"BKG","lat":"37.579489","lon":"-122.343997"},{"name":"Barlaston","crs":"BRT","lat":"52.969151","lon":"-2.152013"},{"name":"Barming","crs":"BMG","lat":"51.284679","lon":"0.478782"},{"name":"Barmouth","crs":"BRM","lat":"52.722347","lon":"-4.056512"},{"name":"Barnehurst","crs":"BNH","lat":"51.465057","lon":"0.159981"},{"name":"Barnes","crs":"BNS","lat":"51.46708","lon":"-0.24214"},{"name":"Barnes Bridge","crs":"BNI","lat":"51.47201","lon":"-0.25261"},{"name":"Barnetby","crs":"BTB","lat":"53.575174","lon":"-0.410051"},{"name":"Barnham","crs":"BAA","lat":"50.830893","lon":"-0.640084"},{"name":"Barnhill","crs":"BNL","lat":"-18.367399","lon":"122.038387"},{"name":"Barnsley","crs":"BNY","lat":"53.554307","lon":"-1.47745"},{"name":"Barnstaple","crs":"BNP","lat":"51.073961","lon":"-4.063503"},{"name":"Barnt Green","crs":"BTG","lat":"52.360966","lon":"-1.9925"},{"name":"Barrhead","crs":"BRR","lat":"55.803701","lon":"-4.397424"},{"name":"Barrhill","crs":"BRL","lat":"55.097391","lon":"-4.781956"},{"name":"Barrow Haven","crs":"BAV","lat":"53.697455","lon":"-0.392804"},{"name":"Barrow-in-Furness","crs":"BIF","lat":"54.118819","lon":"-3.22616"},{"name":"Barrow-Upon-Soar","crs":"BWS","lat":"52.749472","lon":"-1.145473"},{"name":"Barry","crs":"BRY","lat":"51.396889","lon":"-3.284865"},{"name":"Barry Docks","crs":"BYD","lat":"51.402391","lon":"-3.26168"},{"name":"Barry Island","crs":"BYI","lat":"51.39232","lon":"-3.273749"},{"name":"Barry Links","crs":"BYL","lat":"56.493097","lon":"-2.745691"},{"name":"Barton-on-Humber","crs":"BAU","lat":"53.688877","lon":"-0.443565"},{"name":"Basildon","crs":"BSO","lat":"51.568162","lon":"0.456785"},{"name":"Basingstoke","crs":"BSK","lat":"51.26836","lon":"-1.08725"},{"name":"Bat & Ball","crs":"BBL","lat":"29.761744","lon":"-95.398518"},{"name":"Bath Spa","crs":"BTH","lat":"51.377733","lon":"-2.356989"},{"name":"Bathgate","crs":"BHG","lat":"55.897074","lon":"-3.635911"},{"name":"Batley","crs":"BTL","lat":"53.709945","lon":"-1.623169"},{"name":"Battersby","crs":"BTT","lat":"54.457501","lon":"-1.093713"},{"name":"Battersea Park","crs":"BAK","lat":"51.47696","lon":"-0.14751"},{"name":"Battle","crs":"BAT","lat":"42.318334","lon":"-85.187671"},{"name":"Battlesbridge","crs":"BLB","lat":"51.624799","lon":"0.5654"},{"name":"Bayford","crs":"BAY","lat":"51.758025","lon":"-0.095789"},{"name":"Beaconsfield","crs":"BCF","lat":"42.335867","lon":"-71.140478"},{"name":"Bearley","crs":"BER","lat":"52.245032","lon":"-1.749747"},{"name":"Bearsden","crs":"BRN","lat":"55.917026","lon":"-4.331964"},{"name":"Bearsted","crs":"BSD","lat":"51.275818","lon":"0.57761"},{"name":"Beasdale","crs":"BSL","lat":"56.900153","lon":"-5.763596"},{"name":"Beaulieu Road","crs":"BEU","lat":"50.854962","lon":"-1.504862"},{"name":"Beauly","crs":"BEL","lat":"57.478232","lon":"-4.469851"},{"name":"Bebington","crs":"BEB","lat":"53.357127","lon":"-3.003052"},{"name":"Beccles","crs":"BCC","lat":"52.458331","lon":"1.569659"},{"name":"Beckenham Hill","crs":"BEC","lat":"51.424502","lon":"-0.016063"},{"name":"Beckenham Junction","crs":"BKJ","lat":"51.410959","lon":"-0.025891"},{"name":"Bedford","crs":"BDM","lat":"40.717798","lon":"-73.957517"},{"name":"Bedford St Johns","crs":"BSJ","lat":"52.129377","lon":"-0.467618"},{"name":"Bedhampton","crs":"BDH","lat":"50.853981","lon":"-0.996513"},{"name":"Bedminster","crs":"BMT","lat":"51.440563","lon":"-2.593589"},{"name":"Bedworth","crs":"BEH","lat":"52.479418","lon":"-1.467402"},{"name":"Bedwyn","crs":"BDW","lat":"51.37919","lon":"-1.599054"},{"name":"Beeston","crs":"BEE","lat":"52.920896","lon":"-1.20751"},{"name":"Bekesbourne","crs":"BKS","lat":"51.2614","lon":"1.137036"},{"name":"Belle Vue","crs":"BLV","lat":"42.28664","lon":"-71.145578"},{"name":"Bellgrove","crs":"BLG","lat":"55.856684","lon":"-4.22408"},{"name":"Bellingham","crs":"BGM","lat":"48.750042","lon":"-122.476135"},{"name":"Bellshill","crs":"BLH","lat":"55.816972","lon":"-4.024625"},{"name":"Belmont","crs":"BLM","lat":"37.521291","lon":"-122.276343"},{"name":"Belper","crs":"BLP","lat":"53.024357","lon":"-1.482652"},{"name":"Beltring","crs":"BEG","lat":"51.204528","lon":"0.40345"},{"name":"Belvedere","crs":"BVD","lat":"38.071491","lon":"-78.461824"},{"name":"Bempton","crs":"BEM","lat":"54.127753","lon":"-0.180352"},{"name":"Ben Rhydding","crs":"BEY","lat":"53.925671","lon":"-1.797516"},{"name":"Benfleet","crs":"BEF","lat":"51.543945","lon":"0.561741"},{"name":"Bentham","crs":"BEN","lat":"54.115571","lon":"-2.510719"},{"name":"Bentley (Hants)","crs":"BTY","lat":"51.181293","lon":"-0.868204"},{"name":"Bentley (South Yorks)","crs":"BYK","lat":"53.543901","lon":"-1.151016"},{"name":"Bere Alston","crs":"BAS","lat":"50.485575","lon":"-4.200067"},{"name":"Bere Ferrers","crs":"BFE","lat":"50.451159","lon":"-4.181348"},{"name":"Berkhamsted","crs":"BKM","lat":"51.763138","lon":"-0.56199"},{"name":"Berkswell","crs":"BKW","lat":"52.395898","lon":"-1.64155"},{"name":"Bermuda Park","crs":"BEP","lat":"52.503229","lon":"-1.472676"},{"name":"Berney Arms","crs":"BYA","lat":"52.59026","lon":"1.631024"},{"name":"Berry Brow","crs":"BBW","lat":"53.621074","lon":"-1.793494"},{"name":"Berrylands","crs":"BRS","lat":"51.398976","lon":"-0.280527"},{"name":"Berwick (Sussex)","crs":"BRK","lat":"50.840431","lon":"0.166006"},{"name":"Berwick-upon-Tweed","crs":"BWK","lat":"55.774031","lon":"-2.010797"},{"name":"Bescar Lane","crs":"BES","lat":"53.623851","lon":"-2.914744"},{"name":"Bescot Stadium","crs":"BSC","lat":"52.56311","lon":"-1.9911"},{"name":"Betchworth","crs":"BTO","lat":"51.248102","lon":"-0.266849"},{"name":"Bethnal Green","crs":"BET","lat":"51.52407","lon":"-0.059434"},{"name":"Betws-y-Coed","crs":"BYC","lat":"53.092637","lon":"-3.800732"},{"name":"Beverley","crs":"BEV","lat":"40.64424","lon":"-73.964525"},{"name":"Bexhill","crs":"BEX","lat":"50.841076","lon":"0.476961"},{"name":"Bexley","crs":"BXY","lat":"38.542795","lon":"-90.324932"},{"name":"Bexleyheath","crs":"BXH","lat":"51.4635","lon":"0.13368"},{"name":"Bicester North","crs":"BCS","lat":"51.903478","lon":"-1.150205"},{"name":"Bicester Village","crs":"BIT","lat":"51.89257","lon":"-1.149538"},{"name":"Bickley","crs":"BKL","lat":"51.4001","lon":"0.04527"},{"name":"Bidston","crs":"BID","lat":"53.409087","lon":"-3.077904"},{"name":"Biggleswade","crs":"BIW","lat":"52.085021","lon":"-0.261138"},{"name":"Bilbrook","crs":"BBK","lat":"52.623588","lon":"-2.185802"},{"name":"Billericay","crs":"BIC","lat":"51.628874","lon":"0.418459"},{"name":"Billingham (Cleveland)","crs":"BIL","lat":"54.605714","lon":"-1.279891"},{"name":"Billingshurst","crs":"BIG","lat":"51.015198","lon":"-0.450277"},{"name":"Bingham","crs":"BIN","lat":"35.671392","lon":"-78.589505"},{"name":"Bingley","crs":"BIY","lat":"53.84863","lon":"-1.83732"},{"name":"Birchgrove","crs":"BCG","lat":"51.521562","lon":"-3.202454"},{"name":"Birchington-on-sea","crs":"BCH","lat":"51.377441","lon":"1.301337"},{"name":"Birchwood","crs":"BWD","lat":"53.412818","lon":"-2.525388"},{"name":"Birkbeck","crs":"BIK","lat":"51.403953","lon":"-0.055734"},{"name":"Birkdale","crs":"BDL","lat":"53.63399","lon":"-3.014323"},{"name":"Birkenhead Central","crs":"BKC","lat":"53.3887","lon":"-3.020678"},{"name":"Birkenhead Hamilton Square","crs":"BKQ","lat":"53.394628","lon":"-3.013871"},{"name":"Birkenhead North","crs":"BKN","lat":"53.404399","lon":"-3.057628"},{"name":"Birkenhead Park","crs":"BKP","lat":"53.39745","lon":"-3.039034"},{"name":"Birmingham International","crs":"BHI","lat":"52.450676","lon":"-1.725229"},{"name":"Birmingham Moor Street","crs":"BMO","lat":"52.478967","lon":"-1.892528"},{"name":"Birmingham New Street","crs":"BHM","lat":"52.477754","lon":"-1.898958"},{"name":"Birmingham Snow Hill","crs":"BSW","lat":"52.482838","lon":"-1.898361"},{"name":"Bishop Auckland","crs":"BIA","lat":"54.657263","lon":"-1.677937"},{"name":"Bishopbriggs","crs":"BBG","lat":"55.903888","lon":"-4.224513"},{"name":"Bishops Stortford","crs":"BIS","lat":"51.8667","lon":"0.16492"},{"name":"Bishopstone (Sussex)","crs":"BIP","lat":"50.780181","lon":"0.082789"},{"name":"Bishopton (Strathclyde)","crs":"BPT","lat":"55.902256","lon":"-4.50047"},{"name":"Bitterne","crs":"BTE","lat":"50.918407","lon":"-1.377098"},{"name":"Blackburn","crs":"BBN","lat":"37.522462","lon":"-77.613711"},{"name":"Blackheath","crs":"BKH","lat":"51.46579","lon":"0.0089"},{"name":"Blackhorse Road","crs":"BHO","lat":"51.586959","lon":"-0.040867"},{"name":"Blackpool North","crs":"BPN","lat":"53.822001","lon":"-3.049342"},{"name":"Blackpool Pleasure Beach","crs":"BPB","lat":"53.787922","lon":"-3.053983"},{"name":"Blackpool South","crs":"BPS","lat":"53.798331","lon":"-3.048795"},{"name":"Blackridge","crs":"BKR","lat":"55.884269","lon":"-3.750195"},{"name":"Blackrod","crs":"BLK","lat":"53.591349","lon":"-2.569848"},{"name":"Blackwater","crs":"BAW","lat":"38.840565","lon":"-93.953553"},{"name":"Blaenau Ffestiniog","crs":"BFF","lat":"52.994601","lon":"-3.938479"},{"name":"Blair Atholl","crs":"BLA","lat":"56.765366","lon":"-3.849863"},{"name":"Blairhill","crs":"BAI","lat":"55.866516","lon":"-4.043241"},{"name":"Blake Street","crs":"BKT","lat":"39.772135","lon":"-104.971777"},{"name":"Blakedown","crs":"BKD","lat":"52.406393","lon":"-2.176795"},{"name":"Blantyre","crs":"BLT","lat":"55.797251","lon":"-4.087"},{"name":"Blaydon","crs":"BLO","lat":"54.96589","lon":"-1.712818"},{"name":"Bleasby","crs":"BSB","lat":"53.040826","lon":"-0.944402"},{"name":"Bletchley","crs":"BLY","lat":"51.995363","lon":"-0.736592"},{"name":"Bloxwich","crs":"BLX","lat":"52.6181","lon":"-2.011444"},{"name":"Bloxwich North","crs":"BWN","lat":"52.62527","lon":"-2.017637"},{"name":"Blundellsands & Crosby","crs":"BLN","lat":"53.494454","lon":"-3.051687"},{"name":"Blythe Bridge","crs":"BYB","lat":"52.967917","lon":"-2.066749"},{"name":"Bodmin Parkway","crs":"BOD","lat":"50.44585","lon":"-4.662967"},{"name":"Bodorgan","crs":"BOR","lat":"53.204273","lon":"-4.416258"},{"name":"Bognor Regis","crs":"BOG","lat":"50.786549","lon":"-0.676157"},{"name":"Bogston","crs":"BGS","lat":"55.937035","lon":"-4.711381"},{"name":"Bolton","crs":"BON","lat":"53.574473","lon":"-2.426861"},{"name":"Bolton-Upon-Dearne","crs":"BTD","lat":"53.518822","lon":"-1.311601"},{"name":"Bookham","crs":"BKA","lat":"51.288691","lon":"-0.384149"},{"name":"Bootle (Cumbria)","crs":"BOC","lat":"54.291258","lon":"-3.393674"},{"name":"Bootle New Strand","crs":"BNW","lat":"53.453494","lon":"-2.994291"},{"name":"Bootle Oriel Road","crs":"BOT","lat":"53.446778","lon":"-2.995475"},{"name":"Bordesley","crs":"BBS","lat":"52.472311","lon":"-1.877753"},{"name":"Borough Green & Wrotham","crs":"BRG","lat":"51.291335","lon":"0.305187"},{"name":"Borth","crs":"BRH","lat":"52.491021","lon":"-4.049685"},{"name":"Bosham","crs":"BOH","lat":"50.842725","lon":"-0.847138"},{"name":"Boston","crs":"BSN","lat":"42.351922","lon":"-71.05507"},{"name":"Botley","crs":"BOE","lat":"50.915901","lon":"-1.259301"},{"name":"Bottesford","crs":"BTF","lat":"52.944634","lon":"-0.795093"},{"name":"Bourne End","crs":"BNE","lat":"51.577098","lon":"-0.710481"},{"name":"Bournemouth","crs":"BMH","lat":"50.727217","lon":"-1.864102"},{"name":"Bournville","crs":"BRV","lat":"52.427454","lon":"-1.926742"},{"name":"Bow Brickhill","crs":"BWB","lat":"52.004573","lon":"-0.695572"},{"name":"Bowes Park","crs":"BOP","lat":"51.607143","lon":"-0.120453"},{"name":"Bowling","crs":"BWG","lat":"36.061259","lon":"-115.040297"},{"name":"Box Hill & Westhumble","crs":"BXW","lat":"51.255","lon":"-0.308611"},{"name":"Bracknell","crs":"BCE","lat":"51.413112","lon":"-0.751615"},{"name":"Bradford Forster Square","crs":"BDQ","lat":"53.796936","lon":"-1.752965"},{"name":"Bradford Interchange","crs":"BDI","lat":"53.791578","lon":"-1.750245"},{"name":"Bradford-on-Avon","crs":"BOA","lat":"51.34491","lon":"-2.252324"},{"name":"Brading","crs":"BDN","lat":"50.67836","lon":"-1.138712"},{"name":"Braintree","crs":"BTR","lat":"42.207531","lon":"-71.001358"},{"name":"Braintree Freeport","crs":"BTP","lat":"51.86925","lon":"0.568346"},{"name":"Bramhall","crs":"BML","lat":"53.360526","lon":"-2.163118"},{"name":"Bramley (Hants)","crs":"BMY","lat":"51.33006","lon":"-1.060871"},{"name":"Bramley (W Yorks)","crs":"BLE","lat":"53.805066","lon":"-1.636257"},{"name":"Brampton (Cumbria)","crs":"BMP","lat":"54.932396","lon":"-2.702952"},{"name":"Brampton (Suffolk)","crs":"BRP","lat":"52.395949","lon":"1.544202"},{"name":"Branchton","crs":"BCN","lat":"55.94062","lon":"-4.803341"},{"name":"Brandon","crs":"BND","lat":"32.276166","lon":"-90.013151"},{"name":"Branksome","crs":"BSM","lat":"50.72695","lon":"-1.91975"},{"name":"Braystones (Cumbria)","crs":"BYS","lat":"54.439512","lon":"-3.541868"},{"name":"Bredbury","crs":"BDY","lat":"53.423129","lon":"-2.110384"},{"name":"Breich","crs":"BRC","lat":"55.827362","lon":"-3.667517"},{"name":"Brentford","crs":"BFD","lat":"34.073499","lon":"-84.052458"},{"name":"Brentwood","crs":"BRE","lat":"36.05351","lon":"-86.741992"},{"name":"Bricket Wood","crs":"BWO","lat":"51.705561","lon":"-0.35907"},{"name":"Bridge of Allan","crs":"BEA","lat":"56.156808","lon":"-3.957116"},{"name":"Bridge of Orchy","crs":"BRO","lat":"56.516201","lon":"-4.764168"},{"name":"Bridgend","crs":"BGN","lat":"51.507075","lon":"-3.575341"},{"name":"Bridgeton","crs":"BDG","lat":"55.848947","lon":"-4.225629"},{"name":"Bridgwater","crs":"BWT","lat":"51.12785","lon":"-2.990413"},{"name":"Bridlington","crs":"BDT","lat":"54.084232","lon":"-0.198799"},{"name":"Brierfield","crs":"BRF","lat":"53.824075","lon":"-2.236354"},{"name":"Brigg","crs":"BGG","lat":"53.549097","lon":"-0.485965"},{"name":"Brighouse","crs":"BGH","lat":"49.168143","lon":"-123.136307"},{"name":"Brighton (East Sussex)","crs":"BTN","lat":"50.828869","lon":"-0.141012"},{"name":"Brimsdown","crs":"BMD","lat":"51.65558","lon":"-0.03079"},{"name":"Brinnington","crs":"BNT","lat":"53.432122","lon":"-2.134937"},{"name":"Bristol Parkway","crs":"BPW","lat":"51.514274","lon":"-2.543228"},{"name":"Bristol Temple Meads","crs":"BRI","lat":"51.449689","lon":"-2.58107"},{"name":"Brithdir","crs":"BHD","lat":"51.709805","lon":"-3.22813"},{"name":"Briton Ferry","crs":"BNF","lat":"51.63772","lon":"-3.820144"},{"name":"Brixton","crs":"BRX","lat":"51.462598","lon":"-0.114748"},{"name":"Broad Green","crs":"BGE","lat":"53.406425","lon":"-2.893503"},{"name":"Broadbottom","crs":"BDB","lat":"53.440912","lon":"-2.016666"},{"name":"Broadstairs","crs":"BSR","lat":"51.360631","lon":"1.433653"},{"name":"Brockenhurst","crs":"BCU","lat":"50.816766","lon":"-1.573786"},{"name":"Brockholes","crs":"BHS","lat":"53.59699","lon":"-1.769807"},{"name":"Brockley","crs":"BCY","lat":"51.464621","lon":"-0.037346"},{"name":"Bromborough","crs":"BOM","lat":"53.321847","lon":"-2.986969"},{"name":"Bromborough Rake","crs":"BMR","lat":"53.329849","lon":"-2.989673"},{"name":"Bromley Cross (Lancs)","crs":"BMC","lat":"53.614022","lon":"-2.410632"},{"name":"Bromley North","crs":"BMN","lat":"51.40833","lon":"0.01702"},{"name":"Bromley South","crs":"BMS","lat":"51.400238","lon":"0.017054"},{"name":"Bromsgrove","crs":"BMV","lat":"52.32015","lon":"-2.05014"},{"name":"Brondesbury","crs":"BSY","lat":"51.545256","lon":"-0.202151"},{"name":"Brondesbury Park","crs":"BSP","lat":"51.540909","lon":"-0.210071"},{"name":"Brookmans Park","crs":"BPK","lat":"51.721008","lon":"-0.204695"},{"name":"Brookwood","crs":"BKO","lat":"43.040924","lon":"-89.486489"},{"name":"Broome","crs":"BME","lat":"52.423222","lon":"-2.884352"},{"name":"Broomfleet","crs":"BMF","lat":"53.740093","lon":"-0.671604"},{"name":"Brora","crs":"BRA","lat":"58.012764","lon":"-3.852476"},{"name":"Brough","crs":"BUH","lat":"53.727063","lon":"-0.578713"},{"name":"Broughty Ferry","crs":"BYF","lat":"56.467453","lon":"-2.873367"},{"name":"Broxbourne","crs":"BXB","lat":"51.746914","lon":"-0.01106"},{"name":"Bruce Grove","crs":"BCV","lat":"51.59396","lon":"-0.06984"},{"name":"Brundall","crs":"BDA","lat":"52.619343","lon":"1.439583"},{"name":"Brundall Gardens","crs":"BGA","lat":"52.623372","lon":"1.418561"},{"name":"Brunstane","crs":"BSU","lat":"55.942188","lon":"-3.100795"},{"name":"Brunswick","crs":"BRW","lat":"43.911572","lon":"-69.965512"},{"name":"Bruton","crs":"BRU","lat":"51.111522","lon":"-2.44742"},{"name":"Bryn","crs":"BYN","lat":"40.02202","lon":"-75.315842"},{"name":"Buckenham (Norfolk)","crs":"BUC","lat":"52.597763","lon":"1.470349"},{"name":"Buckley","crs":"BCK","lat":"47.155147","lon":"-122.032493"},{"name":"Bucknell","crs":"BUK","lat":"52.357255","lon":"-2.947429"},{"name":"Buckshaw Parkway","crs":"BSV","lat":"53.673076","lon":"-2.658879"},{"name":"Bugle","crs":"BGL","lat":"50.40019","lon":"-4.791839"},{"name":"Builth Road","crs":"BHR","lat":"52.168925","lon":"-3.427064"},{"name":"Bulwell","crs":"BLW","lat":"52.999386","lon":"-1.195318"},{"name":"Bures","crs":"BUE","lat":"51.971173","lon":"0.769261"},{"name":"Burgess Hill","crs":"BUG","lat":"50.953723","lon":"-0.127343"},{"name":"Burley Park","crs":"BUY","lat":"53.812124","lon":"-1.577755"},{"name":"Burley-in-Wharfedale","crs":"BUW","lat":"53.908094","lon":"-1.753206"},{"name":"Burnage","crs":"BNA","lat":"53.421992","lon":"-2.215309"},{"name":"Burneside (Cumbria)","crs":"BUD","lat":"54.355079","lon":"-2.766692"},{"name":"Burnham (Bucks)","crs":"BNM","lat":"51.523922","lon":"-0.645652"},{"name":"Burnham-on-Crouch","crs":"BUU","lat":"51.633599","lon":"0.81396"},{"name":"Burnley Barracks","crs":"BUB","lat":"53.790833","lon":"-2.258022"},{"name":"Burnley Central","crs":"BNC","lat":"53.7935","lon":"-2.244811"},{"name":"Burnley Manchester Road","crs":"BYM","lat":"53.785109","lon":"-2.249114"},{"name":"Burnside (Strathclyde)","crs":"BUI","lat":"55.816938","lon":"-4.202784"},{"name":"Burntisland","crs":"BTS","lat":"56.057315","lon":"-3.233962"},{"name":"Burscough Bridge","crs":"BCB","lat":"53.60525","lon":"-2.84172"},{"name":"Burscough Junction","crs":"BCJ","lat":"53.597465","lon":"-2.840742"},{"name":"Bursledon","crs":"BUO","lat":"50.883923","lon":"-1.304897"},{"name":"Burton Joyce","crs":"BUJ","lat":"52.983334","lon":"-1.040976"},{"name":"Burton-on-Trent","crs":"BUT","lat":"52.806091","lon":"-1.642287"},{"name":"Bury St Edmunds","crs":"BSE","lat":"52.253551","lon":"0.712483"},{"name":"Busby","crs":"BUS","lat":"37.691856","lon":"-87.555025"},{"name":"Bush Hill Park","crs":"BHK","lat":"51.64152","lon":"-0.06919"},{"name":"Bushey","crs":"BSH","lat":"51.645835","lon":"-0.385382"},{"name":"Butlers Lane","crs":"BUL","lat":"52.59261","lon":"-1.838187"},{"name":"Buxted","crs":"BXD","lat":"50.990009","lon":"0.131466"},{"name":"Buxton","crs":"BUX","lat":"53.260683","lon":"-1.912967"},{"name":"Byfleet & New Haw","crs":"BFN","lat":"51.340125","lon":"-0.471357"},{"name":"Bynea","crs":"BYE","lat":"51.672187","lon":"-4.099001"},{"name":"Cadoxton","crs":"CAD","lat":"51.412219","lon":"-3.248879"},{"name":"Caergwrle","crs":"CGW","lat":"53.108088","lon":"-3.033311"},{"name":"Caerphilly","crs":"CPH","lat":"51.571606","lon":"-3.218482"},{"name":"Caersws","crs":"CWS","lat":"52.516136","lon":"-3.432503"},{"name":"Caldercruix","crs":"CAC","lat":"55.887984","lon":"-3.888607"},{"name":"Caldicot","crs":"CDT","lat":"51.584433","lon":"-2.759744"},{"name":"Caledonian Rd & Barnsbury","crs":"CIR","lat":"35.063266","lon":"-89.82808"},{"name":"Calstock","crs":"CSK","lat":"50.497843","lon":"-4.208791"},{"name":"Cam & Dursley","crs":"CDU","lat":"36.286518","lon":"-95.781527"},{"name":"Camberley","crs":"CAM","lat":"51.336327","lon":"-0.744254"},{"name":"Camborne","crs":"CBN","lat":"50.210478","lon":"-5.297371"},{"name":"Cambridge","crs":"CBG","lat":"34.353441","lon":"-89.527858"},{"name":"Cambridge Heath","crs":"CBH","lat":"51.531977","lon":"-0.057262"},{"name":"Cambridge North","crs":"CMB","lat":"52.223867","lon":"0.157635"},{"name":"Cambuslang","crs":"CBL","lat":"55.819622","lon":"-4.172953"},{"name":"Camden Road","crs":"CMD","lat":"51.541828","lon":"-0.139133"},{"name":"Camelon","crs":"CMO","lat":"56.00612","lon":"-3.817681"},{"name":"Canada Water","crs":"ZCW","lat":"51.49799","lon":"-0.049693"},{"name":"Canley","crs":"CNL","lat":"52.399254","lon":"-1.547565"},{"name":"Cannock","crs":"CAO","lat":"52.686092","lon":"-2.022242"},{"name":"Canonbury","crs":"CNN","lat":"51.548687","lon":"-0.092093"},{"name":"Canterbury East","crs":"CBE","lat":"51.274299","lon":"1.07599"},{"name":"Canterbury West","crs":"CBW","lat":"51.284137","lon":"1.075492"},{"name":"Cantley","crs":"CNY","lat":"52.578828","lon":"1.513485"},{"name":"Capenhurst","crs":"CPU","lat":"53.260023","lon":"-2.942166"},{"name":"Carbis Bay","crs":"CBB","lat":"50.197089","lon":"-5.464024"},{"name":"Cardenden","crs":"CDD","lat":"56.141205","lon":"-3.260915"},{"name":"Cardiff Bay","crs":"CDB","lat":"51.467431","lon":"-3.166685"},{"name":"Cardiff Central","crs":"CDF","lat":"51.475964","lon":"-3.17903"},{"name":"Cardiff Queen Street","crs":"CDQ","lat":"51.481923","lon":"-3.170681"},{"name":"Cardonald","crs":"CDO","lat":"55.852562","lon":"-4.340678"},{"name":"Cardross","crs":"CDR","lat":"55.960373","lon":"-4.653055"},{"name":"Carfin","crs":"CRF","lat":"55.807551","lon":"-3.955386"},{"name":"Cark & Cartmel","crs":"CAK","lat":"40.79763","lon":"-124.141765"},{"name":"Carlisle","crs":"CAR","lat":"40.20607","lon":"-77.192335"},{"name":"Carlton","crs":"CTO","lat":"38.947955","lon":"-76.871939"},{"name":"Carluke","crs":"CLU","lat":"55.731221","lon":"-3.848814"},{"name":"Carmarthen","crs":"CMN","lat":"51.853359","lon":"-4.305984"},{"name":"Carmyle","crs":"CML","lat":"55.834334","lon":"-4.1581"},{"name":"Carnforth","crs":"CNF","lat":"54.129473","lon":"-2.770887"},{"name":"Carnoustie","crs":"CAN","lat":"56.500434","lon":"-2.706004"},{"name":"Carntyne","crs":"CAY","lat":"55.854823","lon":"-4.179053"},{"name":"Carpenders Park","crs":"CPK","lat":"51.627931","lon":"-0.38555"},{"name":"Carrbridge","crs":"CAG","lat":"57.279597","lon":"-3.828045"},{"name":"Carshalton","crs":"CSH","lat":"51.368487","lon":"-0.166232"},{"name":"Carshalton Beeches","crs":"CSB","lat":"51.35741","lon":"-0.16977"},{"name":"Carstairs","crs":"CRS","lat":"55.691161","lon":"-3.668605"},{"name":"Cartsdyke","crs":"CDY","lat":"55.942117","lon":"-4.731684"},{"name":"Castle Bar Park","crs":"CBP","lat":"51.52293","lon":"-0.33153"},{"name":"Castle Cary","crs":"CLC","lat":"51.099845","lon":"-2.522701"},{"name":"Castleford","crs":"CFD","lat":"53.724356","lon":"-1.35456"},{"name":"Castleton (Manchester)","crs":"CAS","lat":"53.592436","lon":"-2.178047"},{"name":"Castleton Moor","crs":"CSM","lat":"54.467245","lon":"-0.946723"},{"name":"Caterham","crs":"CAT","lat":"51.282011","lon":"-0.078123"},{"name":"Catford","crs":"CTF","lat":"51.444184","lon":"-0.026082"},{"name":"Catford Bridge","crs":"CFB","lat":"51.444497","lon":"-0.025449"},{"name":"Cathays","crs":"CYS","lat":"51.488907","lon":"-3.17874"},{"name":"Cathcart","crs":"CCT","lat":"47.849024","lon":"-122.116305"},{"name":"Cattal","crs":"CTL","lat":"53.997541","lon":"-1.320495"},{"name":"Causeland","crs":"CAU","lat":"50.40556","lon":"-4.466449"},{"name":"Cefn-y-Bedd","crs":"CYB","lat":"53.098829","lon":"-3.031018"},{"name":"Chadwell Heath","crs":"CTH","lat":"51.56804","lon":"0.12899"},{"name":"Chafford Hundred Lakeside","crs":"CFH","lat":"51.485531","lon":"0.287631"},{"name":"Chalfont & Latimer","crs":"CFO","lat":"40.28844","lon":"-75.209062"},{"name":"Chalkwell","crs":"CHW","lat":"51.538775","lon":"0.670808"},{"name":"Chandlers Ford","crs":"CFR","lat":"50.983411","lon":"-1.384958"},{"name":"Chapel-en-le-Frith","crs":"CEF","lat":"53.312244","lon":"-1.918761"},{"name":"Chapelton (Devon)","crs":"CPN","lat":"51.016545","lon":"-4.024538"},{"name":"Chapeltown (South Yorks)","crs":"CLN","lat":"53.462267","lon":"-1.46643"},{"name":"Chappel & Wakes Colne","crs":"CWC","lat":"31.055726","lon":"-98.570871"},{"name":"Charing (Kent)","crs":"CHG","lat":"51.208135","lon":"0.790349"},{"name":"Charing Cross (Glasgow)","crs":"CHC","lat":"55.864677","lon":"-4.269805"},{"name":"Charlbury","crs":"CBY","lat":"51.872397","lon":"-1.489718"},{"name":"Charlton","crs":"CTN","lat":"51.48674","lon":"0.031049"},{"name":"Chartham","crs":"CRT","lat":"51.257288","lon":"1.018131"},{"name":"Chassen Road","crs":"CSR","lat":"53.446194","lon":"-2.368174"},{"name":"Chatelherault","crs":"CTE","lat":"55.76532","lon":"-4.004673"},{"name":"Chatham","crs":"CTM","lat":"35.787751","lon":"-78.778383"},{"name":"Chathill","crs":"CHT","lat":"55.536732","lon":"-1.706391"},{"name":"Cheadle Hulme","crs":"CHU","lat":"53.375942","lon":"-2.188302"},{"name":"Cheam","crs":"CHE","lat":"51.35548","lon":"-0.21414"},{"name":"Cheddington","crs":"CED","lat":"51.858051","lon":"-0.66217"},{"name":"Chelford (Cheshire)","crs":"CEL","lat":"53.270414","lon":"-2.280642"},{"name":"Chelmsford","crs":"CHM","lat":"51.73638","lon":"0.4686"},{"name":"Chelsfield","crs":"CLD","lat":"51.35728","lon":"0.106351"},{"name":"Cheltenham Spa","crs":"CNM","lat":"51.897375","lon":"-2.099755"},{"name":"Chepstow","crs":"CPW","lat":"51.639993","lon":"-2.671259"},{"name":"Cherry Tree","crs":"CYT","lat":"53.733258","lon":"-2.518564"},{"name":"Chertsey","crs":"CHY","lat":"51.3873","lon":"-0.509475"},{"name":"Cheshunt","crs":"CHN","lat":"51.703051","lon":"-0.023948"},{"name":"Chessington North","crs":"CSN","lat":"51.36404","lon":"-0.30068"},{"name":"Chessington South","crs":"CSS","lat":"51.35655","lon":"-0.30813"},{"name":"Chester","crs":"CTR","lat":"39.849337","lon":"-75.359933"},{"name":"Chester Road","crs":"CRD","lat":"52.535597","lon":"-1.832479"},{"name":"Chesterfield","crs":"CHD","lat":"53.238235","lon":"-1.420115"},{"name":"Chester-le-Street","crs":"CLS","lat":"54.854566","lon":"-1.578088"},{"name":"Chestfield & Swalecliffe","crs":"CSW","lat":"51.350328","lon":"1.065566"},{"name":"Chetnole","crs":"CNO","lat":"50.866426","lon":"-2.573031"},{"name":"Chichester","crs":"CCH","lat":"50.832026","lon":"-0.781868"},{"name":"Chilham","crs":"CIL","lat":"51.244373","lon":"0.975695"},{"name":"Chilworth","crs":"CHL","lat":"51.215184","lon":"-0.524914"},{"name":"Chingford","crs":"CHI","lat":"51.633142","lon":"0.009859"},{"name":"Chinley","crs":"CLY","lat":"53.340214","lon":"-1.944257"},{"name":"Chippenham","crs":"CPM","lat":"51.462414","lon":"-2.115319"},{"name":"Chipstead","crs":"CHP","lat":"51.309304","lon":"-0.169561"},{"name":"Chirk","crs":"CRK","lat":"52.932947","lon":"-3.066115"},{"name":"Chislehurst","crs":"CIT","lat":"51.40556","lon":"0.05744"},{"name":"Chiswick","crs":"CHK","lat":"42.340761","lon":"-71.150834"},{"name":"Cholsey","crs":"CHO","lat":"51.570202","lon":"-1.158003"},{"name":"Chorley","crs":"CRL","lat":"53.652524","lon":"-2.626915"},{"name":"Chorleywood","crs":"CLW","lat":"51.654219","lon":"-0.518273"},{"name":"Christchurch","crs":"CHR","lat":"50.738325","lon":"-1.784485"},{"name":"Christs Hospital","crs":"CHH","lat":"51.050782","lon":"-0.363788"},{"name":"Church & Oswaldtwistle","crs":"CTW","lat":"37.056525","lon":"-95.710939"},{"name":"Church Fenton","crs":"CHF","lat":"53.826943","lon":"-1.227121"},{"name":"Church Stretton","crs":"CTT","lat":"52.53723","lon":"-2.803618"},{"name":"Cilmeri","crs":"CIM","lat":"52.15049","lon":"-3.456479"},{"name":"City Thameslink","crs":"CTK","lat":"51.51389","lon":"-0.103659"},{"name":"Clacton-on-Sea","crs":"CLT","lat":"51.79401","lon":"1.15412"},{"name":"Clandon","crs":"CLA","lat":"51.263951","lon":"-0.502826"},{"name":"Clapham (North Yorkshire)","crs":"CPY","lat":"54.105367","lon":"-2.410158"},{"name":"Clapham High Street","crs":"CLP","lat":"51.465049","lon":"-0.131603"},{"name":"Clapham Junction","crs":"CLJ","lat":"51.465174","lon":"-0.170811"},{"name":"Clapton","crs":"CPT","lat":"51.561648","lon":"-0.056998"},{"name":"Clarbeston Road","crs":"CLR","lat":"51.851824","lon":"-4.882136"},{"name":"Clarkston","crs":"CKS","lat":"33.819929","lon":"-84.241979"},{"name":"Claverdon","crs":"CLV","lat":"52.277082","lon":"-1.696513"},{"name":"Claygate","crs":"CLG","lat":"51.361075","lon":"-0.348248"},{"name":"Cleethorpes","crs":"CLE","lat":"53.562862","lon":"-0.030438"},{"name":"Cleland","crs":"CEA","lat":"55.804478","lon":"-3.9103"},{"name":"Clifton (Manchester)","crs":"CLI","lat":"53.522411","lon":"-2.314103"},{"name":"Clifton Down","crs":"CFN","lat":"51.464686","lon":"-2.610289"},{"name":"Clitheroe","crs":"CLH","lat":"53.873726","lon":"-2.39412"},{"name":"Clock House","crs":"CLK","lat":"51.40858","lon":"-0.04063"},{"name":"Clunderwen","crs":"CUW","lat":"51.840159","lon":"-4.730296"},{"name":"Clydebank","crs":"CYK","lat":"55.900716","lon":"-4.404206"},{"name":"Coatbridge Central","crs":"CBC","lat":"55.862671","lon":"-4.032248"},{"name":"Coatbridge Sunnyside","crs":"CBS","lat":"55.86688","lon":"-4.028232"},{"name":"Coatdyke","crs":"COA","lat":"55.864323","lon":"-4.005006"},{"name":"Cobham & Stoke d'Abernon","crs":"CSD","lat":"32.838391","lon":"-117.125314"},{"name":"Codsall","crs":"CSL","lat":"52.627278","lon":"-2.201592"},{"name":"Cogan","crs":"CGN","lat":"41.343716","lon":"-77.107097"},{"name":"Colchester","crs":"COL","lat":"51.900753","lon":"0.892621"},{"name":"Colchester Town","crs":"CET","lat":"51.886536","lon":"0.90442"},{"name":"Coleshill Parkway","crs":"CEH","lat":"52.516453","lon":"-1.708415"},{"name":"Collingham","crs":"CLM","lat":"53.144104","lon":"-0.750391"},{"name":"Collington","crs":"CLL","lat":"38.891888","lon":"-76.74566"},{"name":"Colne","crs":"CNE","lat":"53.854716","lon":"-2.181832"},{"name":"Colwall","crs":"CWL","lat":"52.07992","lon":"-2.356788"},{"name":"Colwyn Bay","crs":"CWB","lat":"53.296599","lon":"-3.725489"},{"name":"Combe (Oxon)","crs":"CME","lat":"51.832684","lon":"-1.394115"},{"name":"Commondale","crs":"COM","lat":"54.481236","lon":"-0.975115"},{"name":"Congleton","crs":"CNG","lat":"53.157784","lon":"-2.192664"},{"name":"Conisbrough","crs":"CNS","lat":"53.489367","lon":"-1.234342"},{"name":"Connel Ferry","crs":"CON","lat":"56.452483","lon":"-5.383442"},{"name":"Conon Bridge","crs":"CBD","lat":"57.561544","lon":"-4.440358"},{"name":"Cononley","crs":"CEY","lat":"53.917495","lon":"-2.011908"},{"name":"Conway Park","crs":"CNP","lat":"53.393395","lon":"-3.022555"},{"name":"Conwy","crs":"CNW","lat":"53.280063","lon":"-3.830326"},{"name":"Cooden Beach","crs":"COB","lat":"50.833691","lon":"0.427155"},{"name":"Cookham","crs":"COO","lat":"51.557425","lon":"-0.722133"},{"name":"Cooksbridge","crs":"CBR","lat":"50.903751","lon":"-0.009175"},{"name":"Coombe Junction Halt","crs":"COE","lat":"50.445327","lon":"-4.481277"},{"name":"Copplestone","crs":"COP","lat":"50.814457","lon":"-3.75159"},{"name":"Corbridge","crs":"CRB","lat":"54.96631","lon":"-2.018512"},{"name":"Corby","crs":"COR","lat":"52.488797","lon":"-0.688185"},{"name":"Corfe Castle","crs":"CFC","lat":"50.636953","lon":"-2.055257"},{"name":"Corkerhill","crs":"CKH","lat":"55.837494","lon":"-4.334278"},{"name":"Corkickle","crs":"CKL","lat":"54.541755","lon":"-3.582219"},{"name":"Corpach","crs":"CPA","lat":"56.842808","lon":"-5.121943"},{"name":"Corrour","crs":"CRR","lat":"56.760197","lon":"-4.69059"},{"name":"Coryton","crs":"COY","lat":"51.520395","lon":"-3.231772"},{"name":"Coseley","crs":"CSY","lat":"52.545307","lon":"-2.086034"},{"name":"Cosford","crs":"COS","lat":"52.644935","lon":"-2.300572"},{"name":"Cosham","crs":"CSA","lat":"50.841911","lon":"-1.067315"},{"name":"Cottingham","crs":"CGM","lat":"53.781564","lon":"-0.40645"},{"name":"Cottingley","crs":"COT","lat":"53.76791","lon":"-1.587557"},{"name":"Coulsdon South","crs":"CDS","lat":"51.31583","lon":"-0.13786"},{"name":"Coulsdon Town","crs":"CDN","lat":"51.32204","lon":"-0.13444"},{"name":"Coventry","crs":"COV","lat":"33.685475","lon":"-84.501593"},{"name":"Coventry Arena","crs":"CAA","lat":"52.446788","lon":"-1.495033"},{"name":"Cowden (Kent)","crs":"CWN","lat":"51.155702","lon":"0.109995"},{"name":"Cowdenbeath","crs":"COW","lat":"56.111685","lon":"-3.34317"},{"name":"Cradley Heath","crs":"CRA","lat":"52.469591","lon":"-2.090461"},{"name":"Craigendoran","crs":"CGD","lat":"55.994695","lon":"-4.711505"},{"name":"Cramlington","crs":"CRM","lat":"55.087747","lon":"-1.598521"},{"name":"Cranbrook (Devon)","crs":"CBK","lat":"50.75008","lon":"-3.420429"},{"name":"Craven Arms","crs":"CRV","lat":"52.442373","lon":"-2.837406"},{"name":"Crawley","crs":"CRW","lat":"51.112188","lon":"-0.186469"},{"name":"Crayford","crs":"CRY","lat":"51.448216","lon":"0.178918"},{"name":"Crediton","crs":"CDI","lat":"50.78331","lon":"-3.646694"},{"name":"Cressing (Essex)","crs":"CES","lat":"51.852345","lon":"0.577989"},{"name":"Cressington","crs":"CSG","lat":"53.358803","lon":"-2.912031"},{"name":"Creswell","crs":"CWD","lat":"53.264185","lon":"-1.216324"},{"name":"Crewe","crs":"CRE","lat":"37.167618","lon":"-78.116665"},{"name":"Crewkerne","crs":"CKN","lat":"50.873661","lon":"-2.77847"},{"name":"Crews Hill","crs":"CWH","lat":"51.684513","lon":"-0.107023"},{"name":"Crianlarich","crs":"CNR","lat":"56.390465","lon":"-4.618408"},{"name":"Criccieth","crs":"CCC","lat":"52.918399","lon":"-4.237437"},{"name":"Cricklewood","crs":"CRI","lat":"51.55845","lon":"-0.21265"},{"name":"Croftfoot","crs":"CFF","lat":"55.818253","lon":"-4.228311"},{"name":"Crofton Park","crs":"CFT","lat":"51.45519","lon":"-0.03648"},{"name":"Cromer","crs":"CMR","lat":"40.833061","lon":"-81.382442"},{"name":"Cromford","crs":"CMF","lat":"53.112915","lon":"-1.549256"},{"name":"Crookston","crs":"CKT","lat":"47.766487","lon":"-96.629316"},{"name":"Cross Gates","crs":"CRG","lat":"53.80466","lon":"-1.451599"},{"name":"Crossflatts","crs":"CFL","lat":"53.858379","lon":"-1.844449"},{"name":"Crosshill","crs":"COI","lat":"55.833236","lon":"-4.256627"},{"name":"Crosskeys","crs":"CKY","lat":"44.643402","lon":"-121.131074"},{"name":"Crossmyloof","crs":"CMY","lat":"55.833972","lon":"-4.284325"},{"name":"Croston","crs":"CSO","lat":"53.667445","lon":"-2.777914"},{"name":"Crouch Hill","crs":"CRH","lat":"51.571378","lon":"-0.117151"},{"name":"Crowborough","crs":"COH","lat":"51.046373","lon":"0.187951"},{"name":"Crowhurst","crs":"CWU","lat":"50.888572","lon":"0.501373"},{"name":"Crowle","crs":"CWE","lat":"53.589752","lon":"-0.817362"},{"name":"Crowthorne","crs":"CRN","lat":"51.366726","lon":"-0.819256"},{"name":"Croy","crs":"CRO","lat":"55.955368","lon":"-4.036367"},{"name":"Crystal Palace","crs":"CYP","lat":"51.41811","lon":"-0.07258"},{"name":"Cuddington","crs":"CUD","lat":"53.240036","lon":"-2.599495"},{"name":"Cuffley","crs":"CUF","lat":"51.708704","lon":"-0.109567"},{"name":"Culham","crs":"CUM","lat":"51.653814","lon":"-1.236453"},{"name":"Culrain","crs":"CUA","lat":"57.919571","lon":"-4.404313"},{"name":"Cumbernauld","crs":"CUB","lat":"55.941873","lon":"-3.980641"},{"name":"Cupar","crs":"CUP","lat":"56.317126","lon":"-3.009276"},{"name":"Curriehill","crs":"CUH","lat":"55.900558","lon":"-3.31875"},{"name":"Cuxton","crs":"CUX","lat":"51.373847","lon":"0.461655"},{"name":"Cwmbach","crs":"CMH","lat":"51.701199","lon":"-3.414368"},{"name":"Cwmbran","crs":"CWM","lat":"51.657162","lon":"-3.016158"},{"name":"Cynghordy","crs":"CYN","lat":"52.051616","lon":"-3.748047"},{"name":"Dagenham Dock","crs":"DDK","lat":"51.526227","lon":"0.146117"},{"name":"Daisy Hill","crs":"DSY","lat":"53.539516","lon":"-2.515946"},{"name":"Dalgety Bay","crs":"DAG","lat":"56.042182","lon":"-3.367556"},{"name":"Dalmally","crs":"DAL","lat":"56.401052","lon":"-4.983413"},{"name":"Dalmarnock","crs":"DAK","lat":"55.842112","lon":"-4.217639"},{"name":"Dalmeny","crs":"DAM","lat":"55.986246","lon":"-3.381594"},{"name":"Dalmuir","crs":"DMR","lat":"55.911942","lon":"-4.426595"},{"name":"Dalreoch","crs":"DLR","lat":"55.947407","lon":"-4.577846"},{"name":"Dalry","crs":"DLY","lat":"55.705754","lon":"-4.711414"},{"name":"Dalston (Cumbria)","crs":"DLS","lat":"54.846213","lon":"-2.988564"},{"name":"Dalston Junction","crs":"DLJ","lat":"51.546092","lon":"-0.075156"},{"name":"Dalston Kingsland","crs":"DLK","lat":"51.548191","lon":"-0.075627"},{"name":"Dalton (Cumbria)","crs":"DLT","lat":"54.178985","lon":"-2.708529"},{"name":"Dalwhinnie","crs":"DLW","lat":"56.935114","lon":"-4.24609"},{"name":"Danby","crs":"DNY","lat":"41.859665","lon":"-88.055382"},{"name":"Danescourt","crs":"DCT","lat":"51.500233","lon":"-3.233954"},{"name":"Danzey","crs":"DZY","lat":"52.324761","lon":"-1.820959"},{"name":"Darlington","crs":"DAR","lat":"54.520987","lon":"-1.546647"},{"name":"Darnall","crs":"DAN","lat":"53.384602","lon":"-1.412566"},{"name":"Darsham","crs":"DSM","lat":"52.273018","lon":"1.523501"},{"name":"Dartford","crs":"DFD","lat":"51.447158","lon":"0.219031"},{"name":"Darton","crs":"DRT","lat":"53.588353","lon":"-1.531544"},{"name":"Darwen","crs":"DWN","lat":"53.697902","lon":"-2.464375"},{"name":"Datchet","crs":"DAT","lat":"51.483078","lon":"-0.579405"},{"name":"Davenport","crs":"DVN","lat":"35.757366","lon":"-86.406765"},{"name":"Dawlish","crs":"DWL","lat":"50.580807","lon":"-3.464641"},{"name":"Dawlish Warren","crs":"DWW","lat":"50.598663","lon":"-3.443702"},{"name":"Deal","crs":"DEA","lat":"51.223173","lon":"1.398863"},{"name":"Dean (Wilts)","crs":"DEN","lat":"51.042486","lon":"-1.63469"},{"name":"Deansgate","crs":"DGT","lat":"53.474172","lon":"-2.251"},{"name":"Deganwy","crs":"DGY","lat":"53.294476","lon":"-3.833001"},{"name":"Deighton","crs":"DHN","lat":"53.668368","lon":"-1.75243"},{"name":"Delamere","crs":"DLM","lat":"53.228754","lon":"-2.666667"},{"name":"Denby Dale","crs":"DBD","lat":"53.572563","lon":"-1.662951"},{"name":"Denham","crs":"DNM","lat":"51.578812","lon":"-0.497327"},{"name":"Denham Golf Club","crs":"DGC","lat":"51.580527","lon":"-0.517726"},{"name":"Denmark Hill","crs":"DMK","lat":"51.468064","lon":"-0.089608"},{"name":"Dent","crs":"DNT","lat":"35.906727","lon":"-84.118816"},{"name":"Denton","crs":"DTN","lat":"33.198896","lon":"-97.13192"},{"name":"Deptford","crs":"DEP","lat":"51.478863","lon":"-0.026717"},{"name":"Derby","crs":"DBY","lat":"42.95061","lon":"-85.613864"},{"name":"Derby Road (Ipswich)","crs":"DBR","lat":"52.050568","lon":"1.182674"},{"name":"Devonport (Devon)","crs":"DPT","lat":"50.378454","lon":"-4.169955"},{"name":"Devonport Dockyard","crs":"DOC","lat":"50.38231","lon":"-4.176115"},{"name":"Dewsbury","crs":"DEW","lat":"53.692154","lon":"-1.633121"},{"name":"Didcot Parkway","crs":"DID","lat":"51.611007","lon":"-1.242819"},{"name":"Digby & Sowton","crs":"DIG","lat":"44.621529","lon":"-65.757553"},{"name":"Dilton Marsh","crs":"DMH","lat":"51.249442","lon":"-2.208107"},{"name":"Dinas (Rhondda)","crs":"DMG","lat":"51.617476","lon":"-3.437182"},{"name":"Dinas Powys","crs":"DNS","lat":"51.431459","lon":"-3.218865"},{"name":"Dingle Road","crs":"DGL","lat":"51.440003","lon":"-3.180158"},{"name":"Dingwall","crs":"DIN","lat":"57.594249","lon":"-4.422375"},{"name":"Dinsdale","crs":"DND","lat":"54.51474","lon":"-1.467075"},{"name":"Dinting","crs":"DTG","lat":"53.449345","lon":"-1.970296"},{"name":"Disley","crs":"DSL","lat":"53.358241","lon":"-2.042465"},{"name":"Diss","crs":"DIS","lat":"52.373676","lon":"1.123725"},{"name":"Dodworth","crs":"DOD","lat":"53.544411","lon":"-1.531453"},{"name":"Dolau","crs":"DOL","lat":"52.295118","lon":"-3.263065"},{"name":"Doleham","crs":"DLH","lat":"50.918598","lon":"0.609975"},{"name":"Dolgarrog","crs":"DLG","lat":"53.185846","lon":"-3.822956"},{"name":"Dolwyddelan","crs":"DWD","lat":"53.051575","lon":"-3.884737"},{"name":"Doncaster","crs":"DON","lat":"53.522174","lon":"-1.139281"},{"name":"Dorchester South","crs":"DCH","lat":"50.70928","lon":"-2.43724"},{"name":"Dorchester West","crs":"DCW","lat":"50.710949","lon":"-2.442436"},{"name":"Dore & Totley","crs":"DOR","lat":"43.617028","lon":"-83.873164"},{"name":"Dorking (Main)","crs":"DKG","lat":"51.240872","lon":"-0.324039"},{"name":"Dorking Deepdene","crs":"DPD","lat":"51.238915","lon":"-0.323807"},{"name":"Dorking West","crs":"DKT","lat":"51.236427","lon":"-0.339646"},{"name":"Dormans","crs":"DMS","lat":"51.155543","lon":"-0.003882"},{"name":"Dorridge","crs":"DDG","lat":"52.372135","lon":"-1.75288"},{"name":"Dove Holes","crs":"DVH","lat":"53.300113","lon":"-1.8896"},{"name":"Dover Priory","crs":"DVP","lat":"51.125817","lon":"1.305361"},{"name":"Dovercourt","crs":"DVC","lat":"51.938765","lon":"1.280579"},{"name":"Dovey Junction","crs":"DVY","lat":"52.564408","lon":"-3.92391"},{"name":"Downham Market","crs":"DOW","lat":"52.604126","lon":"0.3657"},{"name":"Drayton Green","crs":"DRG","lat":"51.51662","lon":"-0.33017"},{"name":"Drayton Park","crs":"DYP","lat":"51.552554","lon":"-0.105439"},{"name":"Drem","crs":"DRM","lat":"56.005161","lon":"-2.786004"},{"name":"Driffield","crs":"DRF","lat":"54.001545","lon":"-0.434676"},{"name":"Drigg","crs":"DRI","lat":"54.376912","lon":"-3.443422"},{"name":"Droitwich Spa","crs":"DTW","lat":"52.268215","lon":"-2.158356"},{"name":"Dronfield","crs":"DRO","lat":"53.301392","lon":"-1.468983"},{"name":"Drumchapel","crs":"DMC","lat":"55.904823","lon":"-4.363013"},{"name":"Drumfrochar","crs":"DFR","lat":"55.941114","lon":"-4.773601"},{"name":"Drumgelloch","crs":"DRU","lat":"55.867656","lon":"-3.948154"},{"name":"Drumry","crs":"DMY","lat":"55.904654","lon":"-4.385506"},{"name":"Dublin Ferryport","crs":"DFP","lat":"53.347797","lon":"-6.198757"},{"name":"Dublin Port - Stena","crs":"DPS","lat":"53.349781","lon":"-6.197154"},{"name":"Duddeston","crs":"DUD","lat":"52.488684","lon":"-1.871253"},{"name":"Dudley Port","crs":"DDP","lat":"52.52467","lon":"-2.04947"},{"name":"Duffield","crs":"DFI","lat":"52.988025","lon":"-1.485741"},{"name":"Duirinish","crs":"DRN","lat":"57.319869","lon":"-5.691411"},{"name":"Duke Street","crs":"DST","lat":"38.80692","lon":"-77.079657"},{"name":"Dullingham","crs":"DUL","lat":"52.201439","lon":"0.365882"},{"name":"Dumbarton Central","crs":"DBC","lat":"55.946642","lon":"-4.567385"},{"name":"Dumbarton East","crs":"DBE","lat":"55.942354","lon":"-4.554062"},{"name":"Dumbreck","crs":"DUM","lat":"55.844982","lon":"-4.30092"},{"name":"Dumfries","crs":"DMF","lat":"55.072311","lon":"-3.604493"},{"name":"Dumpton Park","crs":"DMP","lat":"51.345849","lon":"1.425863"},{"name":"Dunbar","crs":"DUN","lat":"55.998299","lon":"-2.513464"},{"name":"Dunblane","crs":"DBL","lat":"56.185754","lon":"-3.965522"},{"name":"Duncraig","crs":"DCG","lat":"57.337082","lon":"-5.636914"},{"name":"Dundee","crs":"DEE","lat":"56.457671","lon":"-2.969396"},{"name":"Dunfermline Queen Margaret","crs":"DFL","lat":"56.080214","lon":"-3.421848"},{"name":"Dunfermline Town","crs":"DFE","lat":"56.068275","lon":"-3.452386"},{"name":"Dunkeld & Birnam","crs":"DKD","lat":"56.567653","lon":"-3.58622"},{"name":"Dunlop","crs":"DNL","lat":"-30.575156","lon":"145.053828"},{"name":"Dunrobin Castle","crs":"DNO","lat":"57.985814","lon":"-3.947164"},{"name":"Dunston","crs":"DOT","lat":"54.95002","lon":"-1.641491"},{"name":"Dunton Green","crs":"DNG","lat":"51.296365","lon":"0.171178"},{"name":"Durham","crs":"DHM","lat":"35.996673","lon":"-78.907009"},{"name":"Durrington-on-Sea","crs":"DUR","lat":"50.817516","lon":"-0.411444"},{"name":"Dyce","crs":"DYC","lat":"57.20565","lon":"-2.192499"},{"name":"Dyffryn Ardudwy","crs":"DYF","lat":"52.788864","lon":"-4.10465"},{"name":"Eaglescliffe","crs":"EAG","lat":"54.529102","lon":"-1.350257"},{"name":"Ealing Broadway","crs":"EAL","lat":"51.514901","lon":"-0.301925"},{"name":"Earlestown","crs":"ERL","lat":"53.451144","lon":"-2.637522"},{"name":"Earley","crs":"EAR","lat":"51.440961","lon":"-0.9178"},{"name":"Earlsfield","crs":"EAD","lat":"51.442352","lon":"-0.187709"},{"name":"Earlswood (Surrey)","crs":"ELD","lat":"51.227452","lon":"-0.170979"},{"name":"Earlswood (West Midlands)","crs":"EWD","lat":"52.366656","lon":"-1.861508"},{"name":"East Croydon","crs":"ECR","lat":"51.374633","lon":"-0.092947"},{"name":"East Didsbury","crs":"EDY","lat":"53.409347","lon":"-2.222112"},{"name":"East Dulwich","crs":"EDW","lat":"51.46149","lon":"-0.08055"},{"name":"East Farleigh","crs":"EFL","lat":"51.255234","lon":"0.484759"},{"name":"East Garforth","crs":"EGF","lat":"53.792144","lon":"-1.371405"},{"name":"East Grinstead","crs":"EGR","lat":"51.126464","lon":"-0.017431"},{"name":"East Kilbride","crs":"EKL","lat":"55.765999","lon":"-4.180213"},{"name":"East Malling","crs":"EML","lat":"51.285891","lon":"0.439212"},{"name":"East Midlands Parkway","crs":"EMD","lat":"52.862511","lon":"-1.263598"},{"name":"East Tilbury","crs":"ETL","lat":"51.484842","lon":"0.413022"},{"name":"East Worthing","crs":"EWR","lat":"50.821636","lon":"-0.355077"},{"name":"Eastbourne","crs":"EBN","lat":"50.769503","lon":"0.281415"},{"name":"Eastbrook","crs":"EBK","lat":"36.843131","lon":"-83.321835"},{"name":"Easterhouse","crs":"EST","lat":"55.85977","lon":"-4.107096"},{"name":"Eastham Rake","crs":"ERA","lat":"53.307605","lon":"-2.981136"},{"name":"Eastleigh","crs":"ESL","lat":"50.968945","lon":"-1.350558"},{"name":"Eastrington","crs":"EGN","lat":"53.755333","lon":"-0.787469"},{"name":"Ebbsfleet International","crs":"EBD","lat":"51.443059","lon":"0.320918"},{"name":"Ebbw Vale Parkway","crs":"EBV","lat":"51.757145","lon":"-3.196112"},{"name":"Ebbw Vale Town","crs":"EBB","lat":"51.776683","lon":"-3.202635"},{"name":"Eccles (Manchester)","crs":"ECC","lat":"53.485667","lon":"-2.334112"},{"name":"Eccles Road","crs":"ECS","lat":"52.47149","lon":"0.970311"},{"name":"Eccleston Park","crs":"ECL","lat":"53.430801","lon":"-2.780041"},{"name":"Edale","crs":"EDL","lat":"53.364741","lon":"-1.817278"},{"name":"Eden Park","crs":"EDN","lat":"39.113105","lon":"-84.490964"},{"name":"Edenbridge","crs":"EBR","lat":"51.208371","lon":"0.060389"},{"name":"Edenbridge Town","crs":"EBT","lat":"51.200112","lon":"0.067135"},{"name":"Edge Hill","crs":"EDG","lat":"53.402662","lon":"-2.94676"},{"name":"Edinburgh","crs":"EDB","lat":"55.951998","lon":"-3.18997"},{"name":"Edinburgh Gateway","crs":"EGY","lat":"55.94093","lon":"-3.32025"},{"name":"Edinburgh Park","crs":"EDP","lat":"55.927665","lon":"-3.307833"},{"name":"Edmonton Green","crs":"EDR","lat":"51.62493","lon":"-0.061089"},{"name":"Effingham Junction","crs":"EFF","lat":"51.29148","lon":"-0.419646"},{"name":"Eggesford","crs":"EGG","lat":"50.887726","lon":"-3.874767"},{"name":"Egham","crs":"EGH","lat":"51.429341","lon":"-0.547029"},{"name":"Egton","crs":"EGT","lat":"54.437578","lon":"-0.761581"},{"name":"Elephant & Castle","crs":"EPH","lat":"37.654487","lon":"-90.687992"},{"name":"Elephant & Castle (Underground)","crs":"ZEL","lat":"37.654487","lon":"-90.687992"},{"name":"Elgin","crs":"ELG","lat":"42.036219","lon":"-88.28615"},{"name":"Ellesmere Port","crs":"ELP","lat":"53.282244","lon":"-2.896404"},{"name":"Elmers End","crs":"ELE","lat":"51.39849","lon":"-0.04954"},{"name":"Elmstead Woods","crs":"ESD","lat":"51.41711","lon":"0.0443"},{"name":"Elmswell","crs":"ESW","lat":"52.238056","lon":"0.912622"},{"name":"Elsecar","crs":"ELR","lat":"53.498649","lon":"-1.427379"},{"name":"Elsenham (Essex)","crs":"ESM","lat":"51.920551","lon":"0.228097"},{"name":"Elstree & Borehamwood","crs":"ELS","lat":"51.644142","lon":"-0.298193"},{"name":"Eltham","crs":"ELW","lat":"51.45564","lon":"0.0525"},{"name":"Elton & Orston","crs":"ELO","lat":"30.481313","lon":"-92.695698"},{"name":"Ely","crs":"ELY","lat":"41.370135","lon":"-82.096571"},{"name":"Emerson Park","crs":"EMP","lat":"38.628899","lon":"-90.136991"},{"name":"Emsworth","crs":"EMS","lat":"50.851438","lon":"-0.938195"},{"name":"Energlyn & Churchill Park","crs":"ECP","lat":"51.584424","lon":"-3.228891"},{"name":"Enfield Chase","crs":"ENC","lat":"51.65326","lon":"-0.09067"},{"name":"Enfield Lock","crs":"ENL","lat":"51.670844","lon":"-0.028411"},{"name":"Enfield Town","crs":"ENF","lat":"51.652099","lon":"-0.079369"},{"name":"Entwistle","crs":"ENT","lat":"53.655692","lon":"-2.41407"},{"name":"Epsom (Surrey)","crs":"EPS","lat":"51.334363","lon":"-0.269242"},{"name":"Epsom Downs","crs":"EPD","lat":"51.32371","lon":"-0.238836"},{"name":"Erdington","crs":"ERD","lat":"52.528412","lon":"-1.839226"},{"name":"Eridge","crs":"ERI","lat":"51.088999","lon":"0.201518"},{"name":"Erith","crs":"ERH","lat":"51.481639","lon":"0.175385"},{"name":"Esher","crs":"ESH","lat":"51.37991","lon":"-0.352772"},{"name":"Eskbank","crs":"EKB","lat":"55.881563","lon":"-3.08276"},{"name":"Essex Road","crs":"EXR","lat":"51.54071","lon":"-0.09625"},{"name":"Etchingham","crs":"ETC","lat":"51.010599","lon":"0.442304"},{"name":"Euxton Balshaw Lane","crs":"EBA","lat":"53.660021","lon":"-2.671792"},{"name":"Evesham","crs":"EVE","lat":"39.89145","lon":"-74.92014"},{"name":"Ewell East","crs":"EWE","lat":"51.345295","lon":"-0.241505"},{"name":"Ewell West","crs":"EWW","lat":"51.35004","lon":"-0.25696"},{"name":"Exeter Central","crs":"EXC","lat":"50.726009","lon":"-3.53326"},{"name":"Exeter St David's","crs":"EXD","lat":"50.729332","lon":"-3.543589"},{"name":"Exeter St Thomas","crs":"EXT","lat":"50.717193","lon":"-3.538904"},{"name":"Exhibition Centre (Glasgow)","crs":"EXG","lat":"55.861524","lon":"-4.283474"},{"name":"Exmouth","crs":"EXM","lat":"50.62162","lon":"-3.414985"},{"name":"Exton","crs":"EXN","lat":"40.019526","lon":"-75.62181"},{"name":"Eynsford","crs":"EYN","lat":"51.362711","lon":"0.204449"},{"name":"Fairbourne","crs":"FRB","lat":"40.695042","lon":"-111.961751"},{"name":"Fairfield","crs":"FRF","lat":"41.142812","lon":"-73.25847"},{"name":"Fairlie","crs":"FRL","lat":"55.751858","lon":"-4.853239"},{"name":"Fairwater","crs":"FRW","lat":"51.493857","lon":"-3.233685"},{"name":"Falconwood","crs":"FCN","lat":"51.45915","lon":"0.07933"},{"name":"Falkirk Grahamston","crs":"FKG","lat":"56.002475","lon":"-3.785018"},{"name":"Falkirk High","crs":"FKK","lat":"55.991864","lon":"-3.792594"},{"name":"Falls of Cruachan","crs":"FOC","lat":"56.393979","lon":"-5.112378"},{"name":"Falmer","crs":"FMR","lat":"50.862038","lon":"-0.087383"},{"name":"Falmouth Docks","crs":"FAL","lat":"50.150796","lon":"-5.055828"},{"name":"Falmouth Town","crs":"FMT","lat":"50.148383","lon":"-5.064688"},{"name":"Fareham","crs":"FRM","lat":"50.853057","lon":"-1.191928"},{"name":"Farnborough (Main)","crs":"FNB","lat":"51.296692","lon":"-0.755419"},{"name":"Farnborough North","crs":"FNN","lat":"51.301996","lon":"-0.742962"},{"name":"Farncombe","crs":"FNC","lat":"51.197191","lon":"-0.604501"},{"name":"Farnham","crs":"FNH","lat":"51.211899","lon":"-0.79241"},{"name":"Farningham Road","crs":"FNR","lat":"51.401568","lon":"0.235452"},{"name":"Farnworth","crs":"FNW","lat":"53.54998","lon":"-2.38779"},{"name":"Farringdon","crs":"ZFD","lat":"51.520208","lon":"-0.104818"},{"name":"Fauldhouse","crs":"FLD","lat":"55.822452","lon":"-3.719479"},{"name":"Faversham","crs":"FAV","lat":"51.3119","lon":"0.890426"},{"name":"Faygate","crs":"FGT","lat":"51.095864","lon":"-0.26305"},{"name":"Fazakerley","crs":"FAZ","lat":"53.469093","lon":"-2.936958"},{"name":"Fearn","crs":"FRN","lat":"57.778095","lon":"-3.993733"},{"name":"Featherstone","crs":"FEA","lat":"38.636351","lon":"-77.266699"},{"name":"Felixstowe","crs":"FLX","lat":"51.96708","lon":"1.35047"},{"name":"Feltham","crs":"FEL","lat":"51.448022","lon":"-0.40901"},{"name":"Feniton","crs":"FNT","lat":"50.786623","lon":"-3.285464"},{"name":"Fenny Stratford","crs":"FEN","lat":"51.999946","lon":"-0.718047"},{"name":"Fernhill","crs":"FER","lat":"51.686552","lon":"-3.395886"},{"name":"Ferriby","crs":"FRY","lat":"53.717152","lon":"-0.507407"},{"name":"Ferryside","crs":"FYS","lat":"51.768547","lon":"-4.369137"},{"name":"Ffairfach","crs":"FFA","lat":"51.87275","lon":"-3.992919"},{"name":"Filey","crs":"FIL","lat":"54.20988","lon":"-0.29387"},{"name":"Filton Abbey Wood","crs":"FIT","lat":"51.503354","lon":"-2.563842"},{"name":"Finchley Road & Frognal","crs":"FNY","lat":"51.561184","lon":"-0.197114"},{"name":"Finsbury Park","crs":"FPK","lat":"51.564722","lon":"-0.10576"},{"name":"Finstock","crs":"FIN","lat":"51.852688","lon":"-1.469538"},{"name":"Fishbourne (Sussex)","crs":"FSB","lat":"50.839058","lon":"-0.814779"},{"name":"Fishersgate","crs":"FSG","lat":"50.834381","lon":"-0.219211"},{"name":"Fishguard & Goodwick","crs":"FGW","lat":"51.993927","lon":"-4.975989"},{"name":"Fishguard Harbour","crs":"FGH","lat":"52.01156","lon":"-4.98567"},{"name":"Fiskerton","crs":"FSK","lat":"53.060291","lon":"-0.912183"},{"name":"Fitzwilliam","crs":"FZW","lat":"53.632592","lon":"-1.374435"},{"name":"Five Ways","crs":"FWY","lat":"52.471165","lon":"-1.912865"},{"name":"Fleet","crs":"FLE","lat":"32.68582","lon":"-117.124491"},{"name":"Flimby","crs":"FLM","lat":"54.690024","lon":"-3.520594"},{"name":"Flint","crs":"FLN","lat":"40.12713","lon":"-83.005203"},{"name":"Flitwick","crs":"FLT","lat":"52.003649","lon":"-0.495241"},{"name":"Flixton","crs":"FLI","lat":"53.443821","lon":"-2.384245"},{"name":"Flowery Field","crs":"FLF","lat":"53.461538","lon":"-2.080522"},{"name":"Folkestone Central","crs":"FKC","lat":"51.08289","lon":"1.16951"},{"name":"Folkestone West","crs":"FKW","lat":"51.084587","lon":"1.153935"},{"name":"Ford","crs":"FOD","lat":"50.829381","lon":"-0.5781"},{"name":"Forest Gate","crs":"FOG","lat":"51.549553","lon":"0.024637"},{"name":"Forest Hill","crs":"FOH","lat":"37.514999","lon":"-77.523529"},{"name":"Formby","crs":"FBY","lat":"53.553455","lon":"-3.070766"},{"name":"Forres","crs":"FOR","lat":"57.611071","lon":"-3.624708"},{"name":"Forsinard","crs":"FRS","lat":"58.356906","lon":"-3.897231"},{"name":"Fort Matilda","crs":"FTM","lat":"55.959011","lon":"-4.795186"},{"name":"Fort William","crs":"FTW","lat":"56.820427","lon":"-5.106129"},{"name":"Four Oaks","crs":"FOK","lat":"52.579796","lon":"-1.828025"},{"name":"Foxfield","crs":"FOX","lat":"54.258636","lon":"-3.215806"},{"name":"Foxton","crs":"FXN","lat":"52.119192","lon":"0.056467"},{"name":"Frant","crs":"FRT","lat":"51.104028","lon":"0.294517"},{"name":"Fratton","crs":"FTN","lat":"50.796483","lon":"-1.073877"},{"name":"Freshfield","crs":"FRE","lat":"53.566285","lon":"-3.071746"},{"name":"Freshford","crs":"FFD","lat":"51.341824","lon":"-2.300825"},{"name":"Frimley","crs":"FML","lat":"51.311859","lon":"-0.746974"},{"name":"Frinton-on-Sea","crs":"FRI","lat":"51.837676","lon":"1.243324"},{"name":"Frizinghall","crs":"FZH","lat":"53.820824","lon":"-1.769459"},{"name":"Frodsham","crs":"FRD","lat":"53.295898","lon":"-2.723731"},{"name":"Frome","crs":"FRO","lat":"51.227264","lon":"-2.309993"},{"name":"Fulwell","crs":"FLW","lat":"51.433866","lon":"-0.349514"},{"name":"Furness Vale","crs":"FNV","lat":"53.348719","lon":"-1.988892"},{"name":"Furze Platt","crs":"FZP","lat":"51.53293","lon":"-0.728506"},{"name":"Gainsborough Central","crs":"GNB","lat":"53.399182","lon":"-0.769669"},{"name":"Gainsborough Lea Road","crs":"GBL","lat":"53.386106","lon":"-0.768933"},{"name":"Galashiels","crs":"GAL","lat":"55.617968","lon":"-2.80617"},{"name":"Garelochhead","crs":"GCH","lat":"56.07991","lon":"-4.82548"},{"name":"Garforth","crs":"GRF","lat":"53.796505","lon":"-1.382416"},{"name":"Gargrave","crs":"GGV","lat":"53.978342","lon":"-2.10517"},{"name":"Garrowhill","crs":"GAR","lat":"55.855171","lon":"-4.129761"},{"name":"Garscadden","crs":"GRS","lat":"55.887524","lon":"-4.364416"},{"name":"Garsdale","crs":"GSD","lat":"54.321551","lon":"-2.326073"},{"name":"Garston (Hertfordshire)","crs":"GSN","lat":"51.686669","lon":"-0.381602"},{"name":"Garswood","crs":"GSW","lat":"53.488163","lon":"-2.672063"},{"name":"Gartcosh","crs":"GRH","lat":"55.885685","lon":"-4.079257"},{"name":"Garth (Mid Glamorgan)","crs":"GMG","lat":"51.596733","lon":"-3.642907"},{"name":"Garth (Powys)","crs":"GTH","lat":"52.133349","lon":"-3.530261"},{"name":"Garve","crs":"GVE","lat":"57.613202","lon":"-4.688207"},{"name":"Gathurst","crs":"GST","lat":"53.559428","lon":"-2.694336"},{"name":"Gatley","crs":"GTY","lat":"53.392999","lon":"-2.230926"},{"name":"Gatwick Airport","crs":"GTW","lat":"51.156636","lon":"-0.16116"},{"name":"Georgemas Junction","crs":"GGJ","lat":"58.513611","lon":"-3.452127"},{"name":"Gerrards Cross","crs":"GER","lat":"51.589065","lon":"-0.5552"},{"name":"Gidea Park","crs":"GDP","lat":"51.581529","lon":"0.205785"},{"name":"Giffnock","crs":"GFN","lat":"55.80399","lon":"-4.293109"},{"name":"Giggleswick","crs":"GIG","lat":"54.061844","lon":"-2.302795"},{"name":"Gilberdyke","crs":"GBD","lat":"53.747948","lon":"-0.731759"},{"name":"Gilfach Fargoed","crs":"GFF","lat":"51.683886","lon":"-3.227248"},{"name":"Gillingham (Dorset)","crs":"GIL","lat":"51.034024","lon":"-2.272619"},{"name":"Gillingham (Kent)","crs":"GLM","lat":"51.386562","lon":"0.549879"},{"name":"Gilshochill","crs":"GSC","lat":"55.897436","lon":"-4.282665"},{"name":"Gipsy Hill","crs":"GIP","lat":"51.424436","lon":"-0.083765"},{"name":"Girvan","crs":"GIR","lat":"55.246227","lon":"-4.848228"},{"name":"Glaisdale","crs":"GLS","lat":"54.439392","lon":"-0.793893"},{"name":"Glan Conwy","crs":"GCW","lat":"53.268665","lon":"-3.797521"},{"name":"Glasgow Central","crs":"GLC","lat":"55.859112","lon":"-4.258109"},{"name":"Glasgow Queen Street","crs":"GLQ","lat":"55.862466","lon":"-4.251156"},{"name":"Glasshoughton","crs":"GLH","lat":"53.709029","lon":"-1.341699"},{"name":"Glazebrook","crs":"GLZ","lat":"53.428381","lon":"-2.459337"},{"name":"Gleneagles","crs":"GLE","lat":"56.274908","lon":"-3.73117"},{"name":"Glenfinnan","crs":"GLF","lat":"56.872377","lon":"-5.449124"},{"name":"Glengarnock","crs":"GLG","lat":"55.738986","lon":"-4.674617"},{"name":"Glenrothes with Thornton","crs":"GLT","lat":"56.16235","lon":"-3.143017"},{"name":"Glossop","crs":"GLO","lat":"53.444437","lon":"-1.948833"},{"name":"Gloucester","crs":"GCR","lat":"42.616757","lon":"-70.668358"},{"name":"Glynde","crs":"GLY","lat":"50.859176","lon":"0.070163"},{"name":"Gobowen","crs":"GOB","lat":"52.893246","lon":"-3.036939"},{"name":"Godalming","crs":"GOD","lat":"51.186577","lon":"-0.618771"},{"name":"Godley","crs":"GDL","lat":"32.173648","lon":"-81.234409"},{"name":"Godstone","crs":"GDN","lat":"51.218155","lon":"-0.050058"},{"name":"Goldthorpe","crs":"GOE","lat":"53.533887","lon":"-1.312775"},{"name":"Golf Street","crs":"GOF","lat":"56.497936","lon":"-2.720198"},{"name":"Golspie","crs":"GOL","lat":"57.97126","lon":"-3.987287"},{"name":"Gomshall","crs":"GOM","lat":"51.219483","lon":"-0.441706"},{"name":"Goodmayes","crs":"GMY","lat":"51.565578","lon":"0.110802"},{"name":"Goole","crs":"GOO","lat":"53.7047","lon":"-0.87444"},{"name":"Goostrey","crs":"GTR","lat":"53.222569","lon":"-2.326469"},{"name":"Gordon Hill","crs":"GDH","lat":"51.663172","lon":"-0.094381"},{"name":"Gorebridge","crs":"GBG","lat":"55.840267","lon":"-3.046519"},{"name":"Goring & Streatley","crs":"GOR","lat":"44.45","lon":"-80.666667"},{"name":"Goring-by-Sea","crs":"GBS","lat":"50.817746","lon":"-0.432955"},{"name":"Gorton","crs":"GTO","lat":"53.468881","lon":"-2.166769"},{"name":"Gospel Oak","crs":"GPO","lat":"51.555247","lon":"-0.151188"},{"name":"Gourock","crs":"GRK","lat":"55.96229","lon":"-4.816266"},{"name":"Gowerton","crs":"GWN","lat":"51.648682","lon":"-4.035342"},{"name":"Goxhill","crs":"GOX","lat":"53.676827","lon":"-0.337444"},{"name":"Grange Park","crs":"GPK","lat":"41.822998","lon":"-87.87322"},{"name":"Grange-Over-Sands","crs":"GOS","lat":"54.195782","lon":"-2.902885"},{"name":"Grangetown (Cardiff)","crs":"GTN","lat":"51.46748","lon":"-3.189666"},{"name":"Grantham","crs":"GRA","lat":"52.906607","lon":"-0.642902"},{"name":"Grateley","crs":"GRT","lat":"51.170249","lon":"-1.619803"},{"name":"Gravelly Hill","crs":"GVH","lat":"52.515347","lon":"-1.852591"},{"name":"Gravesend","crs":"GRV","lat":"51.441441","lon":"0.366852"},{"name":"Grays","crs":"GRY","lat":"51.476401","lon":"0.321667"},{"name":"Great Ayton","crs":"GTA","lat":"54.48957","lon":"-1.115441"},{"name":"Great Bentley","crs":"GRB","lat":"51.851832","lon":"1.065193"},{"name":"Great Chesterford","crs":"GRC","lat":"52.059857","lon":"0.193536"},{"name":"Great Coates","crs":"GCT","lat":"53.57574","lon":"-0.130234"},{"name":"Great Malvern","crs":"GMV","lat":"52.109262","lon":"-2.318304"},{"name":"Great Missenden","crs":"GMN","lat":"51.703522","lon":"-0.709119"},{"name":"Great Yarmouth","crs":"GYM","lat":"52.612019","lon":"1.720635"},{"name":"Green Lane","crs":"GNL","lat":"53.38327","lon":"-3.01641"},{"name":"Green Road","crs":"GNR","lat":"41.478576","lon":"-81.518187"},{"name":"Greenbank","crs":"GBK","lat":"45.325634","lon":"-75.778272"},{"name":"Greenfaulds","crs":"GRL","lat":"55.934889","lon":"-3.993473"},{"name":"Greenfield","crs":"GNF","lat":"32.229578","lon":"-90.022238"},{"name":"Greenford","crs":"GFD","lat":"51.542336","lon":"-0.346337"},{"name":"Greenhithe","crs":"GNH","lat":"51.450546","lon":"0.280273"},{"name":"Greenock Central","crs":"GKC","lat":"55.945447","lon":"-4.752462"},{"name":"Greenock West","crs":"GKW","lat":"55.947124","lon":"-4.768093"},{"name":"Greenwich","crs":"GNW","lat":"41.021118","lon":"-73.625585"},{"name":"Gretna Green","crs":"GEA","lat":"55.00071","lon":"-3.067339"},{"name":"Grimsby Docks","crs":"GMD","lat":"53.574329","lon":"-0.075566"},{"name":"Grimsby Town","crs":"GMB","lat":"53.563603","lon":"-0.086821"},{"name":"Grindleford","crs":"GRN","lat":"53.305491","lon":"-1.625529"},{"name":"Grosmont","crs":"GMT","lat":"54.43614","lon":"-0.725038"},{"name":"Grove Park","crs":"GRP","lat":"51.43086","lon":"0.02175"},{"name":"Guide Bridge","crs":"GUI","lat":"53.474756","lon":"-2.114119"},{"name":"Guildford","crs":"GLD","lat":"51.236745","lon":"-0.580217"},{"name":"Guiseley","crs":"GSY","lat":"53.875854","lon":"-1.715077"},{"name":"Gunnersbury","crs":"GUN","lat":"51.491499","lon":"-0.27543"},{"name":"Gunnislake","crs":"GSL","lat":"50.51642","lon":"-4.219488"},{"name":"Gunton","crs":"GNT","lat":"52.866356","lon":"1.349234"},{"name":"Gwersyllt","crs":"GWE","lat":"53.072728","lon":"-3.017667"},{"name":"Gypsy Lane","crs":"GYP","lat":"54.533197","lon":"-1.180179"},{"name":"Habrough","crs":"HAB","lat":"53.606127","lon":"-0.269002"},{"name":"Hackbridge","crs":"HCB","lat":"51.378055","lon":"-0.153809"},{"name":"Hackney Central","crs":"HKC","lat":"51.547123","lon":"-0.056757"},{"name":"Hackney Downs","crs":"HAC","lat":"51.54876","lon":"-0.06079"},{"name":"Hackney Wick","crs":"HKW","lat":"51.543509","lon":"-0.024"},{"name":"Haddenham & Thame Parkway","crs":"HDM","lat":"51.77334","lon":"-0.925965"},{"name":"Haddiscoe","crs":"HAD","lat":"52.528728","lon":"1.623331"},{"name":"Hadfield","crs":"HDF","lat":"53.460853","lon":"-1.965589"},{"name":"Hadley Wood","crs":"HDW","lat":"51.668411","lon":"-0.176437"},{"name":"Hag Fold","crs":"HGF","lat":"53.53356","lon":"-2.493643"},{"name":"Haggerston","crs":"HGG","lat":"51.538723","lon":"-0.075415"},{"name":"Hagley","crs":"HAG","lat":"52.422473","lon":"-2.146328"},{"name":"Hairmyres","crs":"HMY","lat":"55.761877","lon":"-4.219956"},{"name":"Hale (Manchester)","crs":"HAL","lat":"53.378434","lon":"-2.347665"},{"name":"Halesworth","crs":"HAS","lat":"52.346878","lon":"1.505739"},{"name":"Halewood","crs":"HED","lat":"53.364605","lon":"-2.829759"},{"name":"Halifax","crs":"HFX","lat":"42.014589","lon":"-70.824099"},{"name":"Hall Green","crs":"HLG","lat":"52.436949","lon":"-1.845741"},{"name":"Hall Road","crs":"HLR","lat":"42.626488","lon":"-83.017247"},{"name":"Halling","crs":"HAI","lat":"51.352474","lon":"0.444961"},{"name":"Hall-i'-th'-Wood","crs":"HID","lat":"53.600483","lon":"-2.418956"},{"name":"Haltwhistle","crs":"HWH","lat":"54.967854","lon":"-2.463572"},{"name":"Ham Street","crs":"HMT","lat":"51.068298","lon":"0.854522"},{"name":"Hamble","crs":"HME","lat":"50.871399","lon":"-1.32845"},{"name":"Hamilton Central","crs":"HNC","lat":"55.773292","lon":"-4.038492"},{"name":"Hamilton West","crs":"HNW","lat":"55.779067","lon":"-4.054851"},{"name":"Hammerton","crs":"HMM","lat":"53.996402","lon":"-1.284386"},{"name":"Hampden Park (Sussex)","crs":"HMD","lat":"50.796356","lon":"0.279372"},{"name":"Hampstead Heath","crs":"HDH","lat":"51.555251","lon":"-0.165891"},{"name":"Hampton (London)","crs":"HMP","lat":"51.50086","lon":"-0.108013"},{"name":"Hampton Court","crs":"HMC","lat":"51.40258","lon":"-0.342778"},{"name":"Hampton Wick","crs":"HMW","lat":"51.414537","lon":"-0.312363"},{"name":"Hampton-in-Arden","crs":"HIA","lat":"52.428653","lon":"-1.699554"},{"name":"Hamstead (Birmingham)","crs":"HSD","lat":"52.531125","lon":"-1.928895"},{"name":"Hamworthy","crs":"HAM","lat":"50.725202","lon":"-2.019458"},{"name":"Hanborough","crs":"HND","lat":"51.82516","lon":"-1.37351"},{"name":"Handforth","crs":"HTH","lat":"53.346508","lon":"-2.213632"},{"name":"Hanwell","crs":"HAN","lat":"51.51183","lon":"-0.33856"},{"name":"Hapton","crs":"HPN","lat":"53.781552","lon":"-2.316977"},{"name":"Harlech","crs":"HRL","lat":"52.861653","lon":"-4.109563"},{"name":"Harlesden","crs":"HDN","lat":"51.536222","lon":"-0.257253"},{"name":"Harling Road","crs":"HRD","lat":"52.453818","lon":"0.909867"},{"name":"Harlington (Beds)","crs":"HLN","lat":"51.961761","lon":"-0.495586"},{"name":"Harlow Mill","crs":"HWM","lat":"51.790414","lon":"0.132407"},{"name":"Harlow Town","crs":"HWN","lat":"51.781166","lon":"0.095269"},{"name":"Harold Wood","crs":"HRO","lat":"51.59277","lon":"0.23315"},{"name":"Harpenden","crs":"HPD","lat":"51.814603","lon":"-0.351694"},{"name":"Harrietsham","crs":"HRM","lat":"51.244831","lon":"0.67265"},{"name":"Harringay","crs":"HGY","lat":"51.577319","lon":"-0.105094"},{"name":"Harringay Green Lanes","crs":"HRY","lat":"51.577012","lon":"-0.098283"},{"name":"Harrington","crs":"HRR","lat":"35.297878","lon":"-101.747521"},{"name":"Harrogate","crs":"HGT","lat":"53.992739","lon":"-1.53789"},{"name":"Harrow & Wealdstone","crs":"HRW","lat":"51.588163","lon":"-0.342285"},{"name":"Harrow-on-the-Hill","crs":"HOH","lat":"51.579393","lon":"-0.33703"},{"name":"Hartford (Cheshire)","crs":"HTF","lat":"53.241745","lon":"-2.553631"},{"name":"Hartlebury","crs":"HBY","lat":"52.334418","lon":"-2.221238"},{"name":"Hartlepool","crs":"HPL","lat":"54.686743","lon":"-1.20785"},{"name":"Hartwood","crs":"HTW","lat":"38.401276","lon":"-77.568453"},{"name":"Harwich International","crs":"HPQ","lat":"51.9473","lon":"1.255155"},{"name":"Harwich Town","crs":"HWC","lat":"51.944305","lon":"1.286711"},{"name":"Haslemere","crs":"HSL","lat":"51.08874","lon":"-0.719266"},{"name":"Hassocks","crs":"HSK","lat":"50.924512","lon":"-0.145983"},{"name":"Hastings","crs":"HGS","lat":"42.385755","lon":"-71.289203"},{"name":"Hatch End","crs":"HTE","lat":"51.60942","lon":"-0.36858"},{"name":"Hatfield & Stainforth","crs":"HFS","lat":"40.279827","lon":"-75.299342"},{"name":"Hatfield (Herts)","crs":"HAT","lat":"51.763843","lon":"-0.215475"},{"name":"Hatfield Peverel","crs":"HAP","lat":"51.77983","lon":"0.591911"},{"name":"Hathersage","crs":"HSG","lat":"53.325882","lon":"-1.651759"},{"name":"Hattersley","crs":"HTY","lat":"53.445297","lon":"-2.04031"},{"name":"Hatton","crs":"HTN","lat":"52.295274","lon":"-1.672773"},{"name":"Havant","crs":"HAV","lat":"50.85431","lon":"-0.981602"},{"name":"Havenhouse","crs":"HVN","lat":"53.114727","lon":"0.273012"},{"name":"Haverfordwest","crs":"HVF","lat":"51.802721","lon":"-4.96035"},{"name":"Hawarden","crs":"HWD","lat":"53.185006","lon":"-3.031919"},{"name":"Hawarden Bridge","crs":"HWB","lat":"53.218189","lon":"-3.032162"},{"name":"Hawkhead","crs":"HKH","lat":"55.842186","lon":"-4.398836"},{"name":"Haydon Bridge","crs":"HDB","lat":"54.975102","lon":"-2.248259"},{"name":"Haydons Road","crs":"HYR","lat":"51.42545","lon":"-0.18879"},{"name":"Hayes & Harlington","crs":"HAY","lat":"39.000013","lon":"-97.114404"},{"name":"Hayes (Kent)","crs":"HYS","lat":"51.376336","lon":"0.010589"},{"name":"Hayle","crs":"HYL","lat":"50.18555","lon":"-5.41989"},{"name":"Haymarket","crs":"HYM","lat":"42.362849","lon":"-71.058273"},{"name":"Haywards Heath","crs":"HHE","lat":"51.005655","lon":"-0.104575"},{"name":"Hazel Grove","crs":"HAZ","lat":"53.37756","lon":"-2.122018"},{"name":"Headcorn","crs":"HCN","lat":"51.165763","lon":"0.627247"},{"name":"Headingley","crs":"HDY","lat":"53.81792","lon":"-1.594304"},{"name":"Headstone Lane","crs":"HDL","lat":"51.602579","lon":"-0.357265"},{"name":"Heald Green","crs":"HDG","lat":"53.369453","lon":"-2.236808"},{"name":"Healing","crs":"HLI","lat":"43.67653","lon":"-70.364985"},{"name":"Heath High Level","crs":"HHL","lat":"51.516865","lon":"-3.18169"},{"name":"Heath Low Level","crs":"HLL","lat":"51.515714","lon":"-3.182123"},{"name":"Heathrow Airport Terminal 4","crs":"HAF","lat":"51.458889","lon":"-0.446656"},{"name":"Heathrow Airport Terminal 5","crs":"HWV","lat":"51.470153","lon":"-0.490427"},{"name":"Heathrow Airport Terminals 1, 2 and 3", "crs":"HXX","lat":"51.471288","lon":"-0.452218"},{"name":"Heaton Chapel","crs":"HTC","lat":"53.425375","lon":"-2.17911"},{"name":"Hebden Bridge","crs":"HBD","lat":"53.73773","lon":"-2.008754"},{"name":"Heckington","crs":"HEC","lat":"52.977414","lon":"-0.294725"},{"name":"Hedge End","crs":"HDE","lat":"50.932068","lon":"-1.294667"},{"name":"Hednesford","crs":"HNF","lat":"52.710087","lon":"-2.001947"},{"name":"Heighington","crs":"HEI","lat":"54.597485","lon":"-1.581728"},{"name":"Helensburgh Central","crs":"HLC","lat":"56.004021","lon":"-4.732572"},{"name":"Helensburgh Upper","crs":"HLU","lat":"56.012446","lon":"-4.730461"},{"name":"Hellifield","crs":"HLD","lat":"54.010886","lon":"-2.227788"},{"name":"Helmsdale","crs":"HMS","lat":"58.117536","lon":"-3.658573"},{"name":"Helsby","crs":"HSB","lat":"53.27524","lon":"-2.771225"},{"name":"Hemel Hempstead","crs":"HML","lat":"51.74246","lon":"-0.490783"},{"name":"Hendon","crs":"HEN","lat":"51.58007","lon":"-0.23865"},{"name":"Hengoed","crs":"HNG","lat":"51.647051","lon":"-3.22542"},{"name":"Henley-in-Arden","crs":"HNL","lat":"52.291456","lon":"-1.783878"},{"name":"Henley-on-Thames","crs":"HOT","lat":"51.534244","lon":"-0.900364"},{"name":"Hensall","crs":"HEL","lat":"53.698551","lon":"-1.114124"},{"name":"Hereford","crs":"HFD","lat":"34.834686","lon":"-102.403999"},{"name":"Herne Bay","crs":"HNB","lat":"51.364581","lon":"1.117821"},{"name":"Herne Hill","crs":"HNH","lat":"51.4533","lon":"-0.10226"},{"name":"Hersham","crs":"HER","lat":"51.376989","lon":"-0.389624"},{"name":"Hertford East","crs":"HFE","lat":"51.799161","lon":"-0.072785"},{"name":"Hertford North","crs":"HFN","lat":"51.798847","lon":"-0.091764"},{"name":"Hessle","crs":"HES","lat":"53.717636","lon":"-0.441288"},{"name":"Heswall","crs":"HSW","lat":"53.329475","lon":"-3.073437"},{"name":"Hever","crs":"HEV","lat":"51.181332","lon":"0.095097"},{"name":"Heworth","crs":"HEW","lat":"54.95157","lon":"-1.55578"},{"name":"Hexham","crs":"HEX","lat":"54.973383","lon":"-2.094738"},{"name":"Heyford","crs":"HYD","lat":"51.918565","lon":"-1.299305"},{"name":"Heysham Port","crs":"HHB","lat":"54.033275","lon":"-2.912985"},{"name":"High Brooms","crs":"HIB","lat":"51.149419","lon":"0.277478"},{"name":"High Street (Glasgow)","crs":"HST","lat":"55.859652","lon":"-4.240353"},{"name":"High Street Kensington Underground","crs":"ZHS","lat":"51.50094","lon":"-0.192688"},{"name":"High Wycombe","crs":"HWY","lat":"51.62959","lon":"-0.74539"},{"name":"Higham (Kent)","crs":"HGM","lat":"51.426569","lon":"0.466365"},{"name":"Highams Park","crs":"HIP","lat":"51.608351","lon":"-0.000106"},{"name":"Highbridge & Burnham","crs":"HIG","lat":"40.836916","lon":"-73.927129"},{"name":"Highbury & Islington","crs":"HHY","lat":"51.556965","lon":"-0.097966"},{"name":"Hightown","crs":"HTO","lat":"53.525137","lon":"-3.056991"},{"name":"Hildenborough","crs":"HLB","lat":"51.214552","lon":"0.227706"},{"name":"Hillfoot","crs":"HLF","lat":"55.920101","lon":"-4.3201"},{"name":"Hillington East","crs":"HLE","lat":"55.854324","lon":"-4.354922"},{"name":"Hillington West","crs":"HLW","lat":"55.856031","lon":"-4.371674"},{"name":"Hillside","crs":"HIL","lat":"40.706445","lon":"-73.778324"},{"name":"Hilsea","crs":"HLS","lat":"50.828266","lon":"-1.058709"},{"name":"Hinchley Wood","crs":"HYW","lat":"51.374925","lon":"-0.340712"},{"name":"Hinckley (Leics)","crs":"HNK","lat":"52.53526","lon":"-1.371427"},{"name":"Hindley","crs":"HIN","lat":"53.542104","lon":"-2.575484"},{"name":"Hinton Admiral","crs":"HNA","lat":"50.752656","lon":"-1.713927"},{"name":"Hitchin","crs":"HIT","lat":"51.953153","lon":"-0.263307"},{"name":"Hither Green","crs":"HGR","lat":"51.451906","lon":"-0.000744"},{"name":"Hockley","crs":"HOC","lat":"51.603534","lon":"0.659126"},{"name":"Hollingbourne","crs":"HBN","lat":"51.265273","lon":"0.627839"},{"name":"Holmes Chapel","crs":"HCH","lat":"53.199046","lon":"-2.351136"},{"name":"Holmwood","crs":"HLM","lat":"51.181205","lon":"-0.320624"},{"name":"Holton Heath","crs":"HOL","lat":"50.711697","lon":"-2.077516"},{"name":"Holyhead","crs":"HHD","lat":"53.3077","lon":"-4.63101"},{"name":"Holytown","crs":"HLY","lat":"55.812526","lon":"-3.973166"},{"name":"Homerton","crs":"HMN","lat":"51.546965","lon":"-0.042234"},{"name":"Honeybourne","crs":"HYB","lat":"52.101578","lon":"-1.83374"},{"name":"Honiton","crs":"HON","lat":"50.796611","lon":"-3.186874"},{"name":"Honley","crs":"HOY","lat":"53.608103","lon":"-1.780887"},{"name":"Honor Oak Park","crs":"HPA","lat":"51.44999","lon":"-0.04548"},{"name":"Hook","crs":"HOK","lat":"39.821495","lon":"-75.419665"},{"name":"Hooton","crs":"HOO","lat":"53.297275","lon":"-2.976985"},{"name":"Hope (Derbyshire)","crs":"HOP","lat":"53.346008","lon":"-1.729834"},{"name":"Hope (Flintshire)","crs":"HPE","lat":"53.116886","lon":"-3.037349"},{"name":"Hopton Heath","crs":"HPT","lat":"52.391368","lon":"-2.911928"},{"name":"Horden","crs":"HRE","lat":"54.764179","lon":"-1.30788"},{"name":"Horley","crs":"HOR","lat":"51.168764","lon":"-0.161063"},{"name":"Hornbeam Park","crs":"HBP","lat":"53.979881","lon":"-1.526828"},{"name":"Hornsey","crs":"HRN","lat":"51.58646","lon":"-0.11195"},{"name":"Horsforth","crs":"HRS","lat":"53.847639","lon":"-1.630035"},{"name":"Horsham","crs":"HRH","lat":"51.066056","lon":"-0.319217"},{"name":"Horsley","crs":"HSY","lat":"51.279388","lon":"-0.435285"},{"name":"Horton-in-Ribblesdale","crs":"HIR","lat":"54.149395","lon":"-2.302036"},{"name":"Horwich Parkway","crs":"HWI","lat":"53.577906","lon":"-2.539696"},{"name":"Hoscar","crs":"HSC","lat":"53.597746","lon":"-2.804053"},{"name":"Hough Green","crs":"HGN","lat":"53.372477","lon":"-2.775053"},{"name":"Hounslow","crs":"HOU","lat":"51.461932","lon":"-0.362336"},{"name":"Hove","crs":"HOV","lat":"50.835098","lon":"-0.171041"},{"name":"Hoveton & Wroxham","crs":"HXM","lat":"52.714772","lon":"1.411968"},{"name":"How Wood (Herts)","crs":"HWW","lat":"51.717549","lon":"-0.344794"},{"name":"Howden","crs":"HOW","lat":"53.764707","lon":"-0.860959"},{"name":"Howwood (Renfrewshire)","crs":"HOZ","lat":"55.810602","lon":"-4.562622"},{"name":"Hoxton","crs":"HOX","lat":"51.531336","lon":"-0.075779"},{"name":"Hoylake","crs":"HYK","lat":"53.389902","lon":"-3.178991"},{"name":"Hubberts Bridge","crs":"HBB","lat":"52.975456","lon":"-0.110629"},{"name":"Hucknall","crs":"HKN","lat":"53.038228","lon":"-1.195906"},{"name":"Huddersfield","crs":"HUD","lat":"53.648411","lon":"-1.784454"},{"name":"Hull","crs":"HUL","lat":"53.744491","lon":"-0.34557"},{"name":"Humphrey Park","crs":"HUP","lat":"53.452219","lon":"-2.327604"},{"name":"Huncoat","crs":"HCT","lat":"53.772203","lon":"-2.346953"},{"name":"Hungerford","crs":"HGD","lat":"51.414793","lon":"-1.511329"},{"name":"Hunmanby","crs":"HUB","lat":"54.174005","lon":"-0.31465"},{"name":"Huntingdon","crs":"HUN","lat":"39.988804","lon":"-75.127274"},{"name":"Huntly","crs":"HNT","lat":"57.444539","lon":"-2.775877"},{"name":"Hunts Cross","crs":"HNX","lat":"53.360875","lon":"-2.855042"},{"name":"Hurst Green","crs":"HUR","lat":"51.244326","lon":"0.004042"},{"name":"Hutton Cranswick","crs":"HUT","lat":"53.955987","lon":"-0.434029"},{"name":"Huyton","crs":"HUY","lat":"53.409463","lon":"-2.842795"},{"name":"Hyde Central","crs":"HYC","lat":"53.451278","lon":"-2.085125"},{"name":"Hyde North","crs":"HYT","lat":"53.46468","lon":"-2.085256"},{"name":"Hykeham","crs":"HKM","lat":"53.195219","lon":"-0.599809"},{"name":"Hyndland","crs":"HYN","lat":"55.879708","lon":"-4.314568"},{"name":"Hythe (Essex)","crs":"HYH","lat":"51.885659","lon":"0.927627"},{"name":"IBM Halt","crs":"IBM","lat":"55.92945","lon":"-4.827319"},{"name":"Ifield","crs":"IFI","lat":"51.11555","lon":"-0.214912"},{"name":"Ilford","crs":"IFD","lat":"51.560394","lon":"0.069753"},{"name":"Ilkeston","crs":"ILN","lat":"52.978935","lon":"-1.295073"},{"name":"Ilkley","crs":"ILK","lat":"53.924673","lon":"-1.822332"},{"name":"Imperial Wharf","crs":"IMW","lat":"51.475027","lon":"-0.182748"},{"name":"Ince & Elton","crs":"INE","lat":"53.276717","lon":"-2.816701"},{"name":"Ince (Manchester)","crs":"INC","lat":"53.539044","lon":"-2.612257"},{"name":"Ingatestone","crs":"INT","lat":"51.667066","lon":"0.384228"},{"name":"Insch","crs":"INS","lat":"57.337608","lon":"-2.617283"},{"name":"Invergordon","crs":"IGD","lat":"57.688973","lon":"-4.174701"},{"name":"Invergowrie","crs":"ING","lat":"56.456512","lon":"-3.057596"},{"name":"Inverkeithing","crs":"INK","lat":"56.035265","lon":"-3.395636"},{"name":"Inverkip","crs":"INP","lat":"55.906099","lon":"-4.872701"},{"name":"Inverness","crs":"INV","lat":"57.479824","lon":"-4.223506"},{"name":"Invershin","crs":"INH","lat":"57.924919","lon":"-4.399636"},{"name":"Inverurie","crs":"INR","lat":"57.2862","lon":"-2.373602"},{"name":"Ipswich","crs":"IPS","lat":"42.676794","lon":"-70.840586"},{"name":"Irlam","crs":"IRL","lat":"53.434306","lon":"-2.433057"},{"name":"Irvine","crs":"IRV","lat":"33.6568","lon":"-117.733468"},{"name":"Isleworth","crs":"ISL","lat":"51.47476","lon":"-0.33689"},{"name":"Islip","crs":"ISP","lat":"40.736017","lon":"-73.20896"},{"name":"Iver","crs":"IVR","lat":"51.508459","lon":"-0.506175"},{"name":"Ivybridge","crs":"IVY","lat":"50.393404","lon":"-3.904761"},{"name":"James Cook","crs":"JCH","lat":"54.552103","lon":"-1.208753"},{"name":"Jewellery Quarter","crs":"JEQ","lat":"52.48945","lon":"-1.91321"},{"name":"Johnston (Pembs)","crs":"JOH","lat":"51.756482","lon":"-4.996955"},{"name":"Johnstone (Strathclyde)","crs":"JHN","lat":"55.834462","lon":"-4.502936"},{"name":"Jordanhill","crs":"JOR","lat":"55.882756","lon":"-4.324873"},{"name":"Kearsley (Manchester)","crs":"KSL","lat":"53.54438","lon":"-2.375022"},{"name":"Kearsney (Kent)","crs":"KSN","lat":"51.14938","lon":"1.272093"},{"name":"Keighley","crs":"KEI","lat":"53.868034","lon":"-1.901678"},{"name":"Keith","crs":"KEH","lat":"34.854093","lon":"-82.32936"},{"name":"Kelvedon","crs":"KEL","lat":"51.84071","lon":"0.702413"},{"name":"Kelvindale","crs":"KVD","lat":"55.893473","lon":"-4.309877"},{"name":"Kemble","crs":"KEM","lat":"51.67694","lon":"-2.02282"},{"name":"Kempston Hardwick","crs":"KMH","lat":"52.092201","lon":"-0.503922"},{"name":"Kempton Park Racecourse","crs":"KMP","lat":"51.421006","lon":"-0.409646"},{"name":"Kemsing","crs":"KMS","lat":"51.297131","lon":"0.247316"},{"name":"Kemsley","crs":"KML","lat":"51.36213","lon":"0.735178"},{"name":"Kendal","crs":"KEN","lat":"42.378614","lon":"-71.282209"},{"name":"Kenilworth","crs":"KNW","lat":"52.34279","lon":"-1.572541"},{"name":"Kenley","crs":"KLY","lat":"51.324684","lon":"-0.101348"},{"name":"Kennett","crs":"KNE","lat":"52.277287","lon":"0.490324"},{"name":"Kennishead","crs":"KNS","lat":"55.813275","lon":"-4.324974"},{"name":"Kensal Green","crs":"KNL","lat":"51.53053","lon":"-0.22463"},{"name":"Kensal Rise","crs":"KNR","lat":"51.534513","lon":"-0.219753"},{"name":"Kensington Olympia","crs":"KPA","lat":"51.497893","lon":"-0.210332"},{"name":"Kent House","crs":"KTH","lat":"51.41221","lon":"-0.04522"},{"name":"Kentish Town","crs":"KTN","lat":"51.55036","lon":"-0.140478"},{"name":"Kentish Town West","crs":"KTW","lat":"51.546836","lon":"-0.146646"},{"name":"Kenton","crs":"KNT","lat":"45.583218","lon":"-122.687087"},{"name":"Kents Bank","crs":"KBK","lat":"54.172857","lon":"-2.925387"},{"name":"Kettering","crs":"KET","lat":"52.393393","lon":"-0.731682"},{"name":"Kew Bridge","crs":"KWB","lat":"51.489422","lon":"-0.287156"},{"name":"Kew Gardens","crs":"KWG","lat":"40.714088","lon":"-73.830021"},{"name":"Keyham","crs":"KEY","lat":"50.389845","lon":"-4.179666"},{"name":"Keynsham","crs":"KYN","lat":"51.418021","lon":"-2.495468"},{"name":"Kidbrooke","crs":"KDB","lat":"51.46212","lon":"0.02752"},{"name":"Kidderminster","crs":"KID","lat":"52.384541","lon":"-2.238544"},{"name":"Kidsgrove","crs":"KDG","lat":"53.086393","lon":"-2.244505"},{"name":"Kidwelly","crs":"KWL","lat":"51.734414","lon":"-4.317355"},{"name":"Kilburn High Road","crs":"KBN","lat":"51.537178","lon":"-0.192372"},{"name":"Kildale","crs":"KLD","lat":"54.477725","lon":"-1.068228"},{"name":"Kildonan","crs":"KIL","lat":"58.170752","lon":"-3.869062"},{"name":"Kilgetty","crs":"KGT","lat":"51.732562","lon":"-4.714592"},{"name":"Kilmarnock","crs":"KMK","lat":"55.612114","lon":"-4.498664"},{"name":"Kilmaurs","crs":"KLM","lat":"55.63688","lon":"-4.530582"},{"name":"Kilpatrick","crs":"KPT","lat":"55.924215","lon":"-4.453121"},{"name":"Kilwinning","crs":"KWN","lat":"55.656298","lon":"-4.709571"},{"name":"Kinbrace","crs":"KBC","lat":"58.258301","lon":"-3.941043"},{"name":"Kingham","crs":"KGM","lat":"51.902425","lon":"-1.628738"},{"name":"Kinghorn","crs":"KGH","lat":"56.069078","lon":"-3.1748"},{"name":"Kings Langley","crs":"KGL","lat":"51.706322","lon":"-0.43827"},{"name":"Kings Lynn","crs":"KLN","lat":"52.753873","lon":"0.403136"},{"name":"Kings Norton","crs":"KNN","lat":"52.414684","lon":"-1.931264"},{"name":"Kings Nympton","crs":"KGN","lat":"50.936148","lon":"-3.905333"},{"name":"Kings Park","crs":"KGP","lat":"40.883835","lon":"-73.254439"},{"name":"Kings Sutton","crs":"KGS","lat":"52.020999","lon":"-1.28105"},{"name":"Kingsknowe","crs":"KGE","lat":"55.918936","lon":"-3.264708"},{"name":"Kingston","crs":"KNG","lat":"36.053267","lon":"-93.519012"},{"name":"Kingswood","crs":"KND","lat":"40.397103","lon":"-74.426263"},{"name":"Kingussie","crs":"KIN","lat":"57.077927","lon":"-4.053174"},{"name":"Kintbury","crs":"KIT","lat":"51.402533","lon":"-1.445821"},{"name":"Kirby Cross","crs":"KBX","lat":"51.841408","lon":"1.215024"},{"name":"Kirk Sandall","crs":"KKS","lat":"53.563498","lon":"-1.074782"},{"name":"Kirkby (Merseyside)","crs":"KIR","lat":"53.481773","lon":"-2.889564"},{"name":"Kirkby Stephen","crs":"KSW","lat":"54.455226","lon":"-2.369215"},{"name":"Kirkby-in-Ashfield","crs":"KKB","lat":"53.100018","lon":"-1.253162"},{"name":"Kirkby-in-Furness","crs":"KBF","lat":"54.232589","lon":"-3.187432"},{"name":"Kirkcaldy","crs":"KDY","lat":"56.112122","lon":"-3.167175"},{"name":"Kirkconnel","crs":"KRK","lat":"55.387625","lon":"-3.999109"},{"name":"Kirkdale","crs":"KKD","lat":"53.440882","lon":"-2.981026"},{"name":"Kirkham & Wesham","crs":"KKM","lat":"32.91155","lon":"-96.772374"},{"name":"Kirkhill","crs":"KKH","lat":"55.81422","lon":"-4.167896"},{"name":"Kirknewton","crs":"KKN","lat":"55.888863","lon":"-3.433467"},{"name":"Kirkstall Forge","crs":"KLF","lat":"53.825074","lon":"-1.62656"},{"name":"Kirkwood","crs":"KWD","lat":"38.58096","lon":"-90.406781"},{"name":"Kirton Lindsey","crs":"KTL","lat":"53.485233","lon":"-0.593538"},{"name":"Kiveton Bridge","crs":"KIV","lat":"53.341029","lon":"-1.267123"},{"name":"Kiveton Park","crs":"KVP","lat":"53.336705","lon":"-1.239519"},{"name":"Knaresborough","crs":"KNA","lat":"54.00913","lon":"-1.470335"},{"name":"Knebworth","crs":"KBW","lat":"51.866859","lon":"-0.187265"},{"name":"Knighton","crs":"KNI","lat":"40.504537","lon":"-122.334906"},{"name":"Knockholt","crs":"KCK","lat":"51.345721","lon":"0.130571"},{"name":"Knottingley","crs":"KNO","lat":"53.706554","lon":"-1.259181"},{"name":"Knucklas","crs":"KNU","lat":"52.359833","lon":"-3.096156"},{"name":"Knutsford","crs":"KNF","lat":"53.301568","lon":"-2.372495"},{"name":"Kyle of Lochalsh","crs":"KYL","lat":"57.279747","lon":"-5.7138"},{"name":"Ladybank","crs":"LDY","lat":"56.274165","lon":"-3.121803"},{"name":"Ladywell","crs":"LAD","lat":"51.456216","lon":"-0.019222"},{"name":"Laindon","crs":"LAI","lat":"51.567781","lon":"0.42372"},{"name":"Lairg","crs":"LRG","lat":"58.001642","lon":"-4.399916"},{"name":"Lake","crs":"LKE","lat":"41.575037","lon":"-87.238925"},{"name":"Lakenheath","crs":"LAK","lat":"52.447606","lon":"0.535351"},{"name":"Lamphey","crs":"LAM","lat":"51.667194","lon":"-4.873291"},{"name":"Lanark","crs":"LNK","lat":"55.673504","lon":"-3.773279"},{"name":"Lancaster","crs":"LAN","lat":"40.054314","lon":"-76.30774"},{"name":"Lancing","crs":"LAC","lat":"50.826949","lon":"-0.323046"},{"name":"Landywood","crs":"LAW","lat":"52.656176","lon":"-2.02087"},{"name":"Langbank","crs":"LGB","lat":"55.924485","lon":"-4.58556"},{"name":"Langho","crs":"LHO","lat":"53.80514","lon":"-2.447971"},{"name":"Langley (Berks)","crs":"LNY","lat":"51.508005","lon":"-0.541905"},{"name":"Langley Green","crs":"LGG","lat":"52.493529","lon":"-2.005552"},{"name":"Langley Mill","crs":"LGM","lat":"53.017465","lon":"-1.331006"},{"name":"Langside","crs":"LGS","lat":"55.820888","lon":"-4.276094"},{"name":"Langwathby","crs":"LGW","lat":"54.694363","lon":"-2.663689"},{"name":"Langwith-Whaley Thorns","crs":"LAG","lat":"53.232732","lon":"-1.209155"},{"name":"Lapford","crs":"LAP","lat":"50.857099","lon":"-3.810638"},{"name":"Lapworth","crs":"LPW","lat":"52.341783","lon":"-1.725647"},{"name":"Larbert","crs":"LBT","lat":"56.022157","lon":"-3.829463"},{"name":"Largs","crs":"LAR","lat":"55.793198","lon":"-4.86735"},{"name":"Larkhall","crs":"LRH","lat":"55.738523","lon":"-3.974837"},{"name":"Laurencekirk","crs":"LAU","lat":"56.836334","lon":"-2.465932"},{"name":"Lawrence Hill","crs":"LWH","lat":"51.458015","lon":"-2.564805"},{"name":"Layton (Lancs)","crs":"LAY","lat":"53.835181","lon":"-3.030444"},{"name":"Lazonby & Kirkoswald","crs":"LZB","lat":"54.750016","lon":"-2.703079"},{"name":"Lea Bridge","crs":"LEB","lat":"51.566677","lon":"-0.036686"},{"name":"Lea Green","crs":"LEG","lat":"53.426944","lon":"-2.725168"},{"name":"Lea Hall","crs":"LEH","lat":"52.48046","lon":"-1.785781"},{"name":"Leagrave","crs":"LEA","lat":"51.90517","lon":"-0.45848"},{"name":"Lealholm","crs":"LHM","lat":"54.460595","lon":"-0.825649"},{"name":"Leamington Spa","crs":"LMS","lat":"52.2845","lon":"-1.5362"},{"name":"Leasowe","crs":"LSW","lat":"53.408061","lon":"-3.099417"},{"name":"Leatherhead","crs":"LHD","lat":"51.29881","lon":"-0.33321"},{"name":"Ledbury","crs":"LED","lat":"52.045264","lon":"-2.42606"},{"name":"Lee (London)","crs":"LEE","lat":"51.449671","lon":"0.014017"},{"name":"Leeds","crs":"LDS","lat":"53.794964","lon":"-1.547369"},{"name":"Leicester","crs":"LEI","lat":"52.631189","lon":"-1.125128"},{"name":"Leigh (Kent)","crs":"LIH","lat":"35.760552","lon":"-78.87592"},{"name":"Leigh-on-Sea","crs":"LES","lat":"51.54128","lon":"0.64044"},{"name":"Leighton Buzzard","crs":"LBZ","lat":"51.916313","lon":"-0.676982"},{"name":"Lelant","crs":"LEL","lat":"50.18391","lon":"-5.43658"},{"name":"Lelant Saltings","crs":"LTS","lat":"50.178689","lon":"-5.441153"},{"name":"Lenham","crs":"LEN","lat":"51.234391","lon":"0.707974"},{"name":"Lenzie","crs":"LNZ","lat":"55.921273","lon":"-4.153867"},{"name":"Leominster","crs":"LEO","lat":"42.539017","lon":"-71.739186"},{"name":"Letchworth Garden City","crs":"LET","lat":"51.979926","lon":"-0.229253"},{"name":"Leuchars (for St. Andrews)","crs":"LEU","lat":"56.375084","lon":"-2.893563"},{"name":"Levenshulme","crs":"LVM","lat":"53.444255","lon":"-2.192894"},{"name":"Lewes","crs":"LWS","lat":"50.87059","lon":"0.011451"},{"name":"Lewisham","crs":"LEW","lat":"51.46521","lon":"-0.013121"},{"name":"Leyland","crs":"LEY","lat":"53.698825","lon":"-2.687076"},{"name":"Leyton Midland Road","crs":"LEM","lat":"51.569462","lon":"-0.007319"},{"name":"Leytonstone High Road","crs":"LER","lat":"51.563221","lon":"0.009584"},{"name":"Lichfield City","crs":"LIC","lat":"52.680192","lon":"-1.825722"},{"name":"Lichfield Trent Valley","crs":"LTV","lat":"52.686893","lon":"-1.800284"},{"name":"Lidlington","crs":"LID","lat":"52.041513","lon":"-0.558837"},{"name":"Limehouse","crs":"LHS","lat":"51.512545","lon":"-0.039695"},{"name":"Lincoln Central","crs":"LCN","lat":"53.226205","lon":"-0.539453"},{"name":"Lingfield","crs":"LFD","lat":"51.176434","lon":"-0.007188"},{"name":"Lingwood","crs":"LGD","lat":"52.622103","lon":"1.48988"},{"name":"Linlithgow","crs":"LIN","lat":"55.976476","lon":"-3.59576"},{"name":"Liphook","crs":"LIP","lat":"51.071368","lon":"-0.800114"},{"name":"Liskeard","crs":"LSK","lat":"50.447236","lon":"-4.469994"},{"name":"Liss","crs":"LIS","lat":"51.043636","lon":"-0.892767"},{"name":"Lisvane & Thornhill","crs":"LVT","lat":"51.543304","lon":"-3.173007"},{"name":"Little Kimble","crs":"LTK","lat":"51.752322","lon":"-0.808438"},{"name":"Little Sutton","crs":"LTT","lat":"53.285482","lon":"-2.943318"},{"name":"Littleborough","crs":"LTL","lat":"53.643052","lon":"-2.094665"},{"name":"Littlehampton","crs":"LIT","lat":"50.810097","lon":"-0.545972"},{"name":"Littlehaven","crs":"LVN","lat":"51.078842","lon":"-0.307601"},{"name":"Littleport","crs":"LTP","lat":"52.462261","lon":"0.316513"},{"name":"Liverpool Central","crs":"LVC","lat":"53.404647","lon":"-2.980009"},{"name":"Liverpool James Street","crs":"LVJ","lat":"53.404908","lon":"-2.991851"},{"name":"Liverpool Lime Street","crs":"LIV","lat":"53.407622","lon":"-2.977313"},{"name":"Liverpool South Parkway","crs":"LPY","lat":"53.357882","lon":"-2.889459"},{"name":"Livingston North","crs":"LSN","lat":"55.90152","lon":"-3.543807"},{"name":"Livingston South","crs":"LVG","lat":"55.871684","lon":"-3.501461"},{"name":"Llanaber","crs":"LLA","lat":"52.741415","lon":"-4.077115"},{"name":"Llanbedr","crs":"LBR","lat":"52.820313","lon":"-4.109654"},{"name":"Llanbister Road","crs":"LLT","lat":"52.336207","lon":"-3.21349"},{"name":"Llanbradach","crs":"LNB","lat":"51.603183","lon":"-3.233038"},{"name":"Llandaf","crs":"LLN","lat":"51.508401","lon":"-3.22883"},{"name":"Llandanwg","crs":"LDN","lat":"52.83623","lon":"-4.123652"},{"name":"Llandecwyn","crs":"LLC","lat":"52.921039","lon":"-4.056536"},{"name":"Llandeilo","crs":"LLL","lat":"51.885015","lon":"-3.986724"},{"name":"Llandovery","crs":"LLV","lat":"51.995319","lon":"-3.802843"},